{"type":"FeatureCollection","features":[{"type":"Feature","geometry":{"type":"MultiLineString","coordinates":[[[-79.397367,43.803328],[-79.397579,43.804061],[-79.397588,43.804113],[-79.397554,43.804165],[-79.397496,43.804198],[-79.397399,43.804219],[-79.397145,43.804203],[-79.396865,43.803968],[-79.396352,43.803454],[-79.396218,43.803263],[-79.396138,43.803018],[-79.396044,43.802801],[-79.395976,43.802569],[-79.3958,43.801865],[-79.395368,43.799945],[-79.394869,43.797922],[-79.394215,43.795118],[-79.393585,43.79229],[-79.393342,43.79112],[-79.392982,43.78922],[-79.392665,43.787702],[-79.392246,43.78558],[-79.392187,43.785222],[-79.392136,43.784998],[-79.392097,43.784756],[-79.391907,43.783862],[-79.391197,43.780625],[-79.390453,43.777403],[-79.390383,43.777046],[-79.390174,43.776087],[-79.38997,43.775234],[-79.389772,43.774326],[-79.389572,43.773468],[-79.389175,43.771645],[-79.388819,43.770087],[-79.388651,43.769373],[-79.388566,43.769047],[-79.388404,43.768184],[-79.388092,43.766886],[-79.388044,43.766582],[-79.387828,43.765738],[-79.387577,43.76481],[-79.387519,43.764643],[-79.387319,43.763986],[-79.38714,43.763304],[-79.387086,43.763127],[-79.386914,43.762361],[-79.386678,43.760835],[-79.386313,43.759117],[-79.386034,43.757508],[-79.385924,43.75682],[-79.385816,43.756222],[-79.385685,43.755564],[-79.385517,43.754812],[-79.385243,43.75347],[-79.385105,43.752849],[-79.384854,43.751642],[-79.384703,43.750746],[-79.384608,43.750258],[-79.384396,43.749219],[-79.384144,43.748052],[-79.384142,43.74787],[-79.383781,43.746087],[-79.383614,43.745099],[-79.383398,43.743984],[-79.382573,43.740047],[-79.381896,43.736401],[-79.381773,43.735636],[-79.381542,43.734508],[-79.381202,43.732662],[-79.381095,43.731995],[-79.381092,43.731863],[-79.3811,43.731753],[-79.381131,43.731635],[-79.381338,43.730644],[-79.381443,43.730234],[-79.381493,43.730122],[-79.381617,43.72958],[-79.381816,43.728989],[-79.381883,43.728831],[-79.381978,43.72854],[-79.382056,43.728224],[-79.382177,43.72757],[-79.382057,43.727363],[-79.382004,43.72718],[-79.381906,43.726973],[-79.381792,43.726805],[-79.381635,43.726633],[-79.381467,43.726466],[-79.381289,43.726304],[-79.381004,43.726074],[-79.380365,43.725666],[-79.380192,43.725578],[-79.380228,43.725637],[-79.380008,43.725362],[-79.37982,43.725093],[-79.37978,43.725007],[-79.379695,43.724611],[-79.379611,43.724323],[-79.379067,43.721757],[-79.378927,43.720969],[-79.378687,43.721015],[-79.378327,43.721105],[-79.378174,43.721155],[-79.3781,43.721196],[-79.378043,43.721244],[-79.377959,43.721335],[-79.377913,43.721407],[-79.377887,43.721479],[-79.377883,43.721523],[-79.377789,43.721621],[-79.377688,43.721702],[-79.377374,43.721772],[-79.375262,43.722179],[-79.375188,43.722205],[-79.375159,43.722224],[-79.375122,43.72227],[-79.375121,43.72231],[-79.375263,43.722663],[-79.375291,43.722681],[-79.375372,43.722684],[-79.375453,43.722673],[-79.376253,43.722504],[-79.377034,43.722352],[-79.378053,43.722134],[-79.378016,43.722057],[-79.377875,43.721619],[-79.377873,43.721579],[-79.377887,43.721479],[-79.377913,43.721407],[-79.377959,43.721335],[-79.378043,43.721244],[-79.3781,43.721196],[-79.378174,43.721155],[-79.378452,43.721072],[-79.378687,43.721015],[-79.378927,43.720969],[-79.378704,43.719714],[-79.37808,43.716711],[-79.377969,43.716065],[-79.37761,43.713844],[-79.377477,43.713085],[-79.377373,43.712393],[-79.377298,43.712024],[-79.377146,43.71103],[-79.377088,43.710882],[-79.37704,43.710657],[-79.376941,43.710296],[-79.376326,43.708698],[-79.375993,43.707807],[-79.375636,43.706933],[-79.374923,43.7051],[-79.374121,43.702993],[-79.376426,43.702501],[-79.378754,43.70204],[-79.378988,43.701972],[-79.37966,43.701852],[-79.380632,43.701632],[-79.38173,43.701413],[-79.382228,43.701301],[-79.38326,43.701095],[-79.386696,43.700347],[-79.38696,43.700306],[-79.390867,43.699486],[-79.396403,43.698357],[-79.39663,43.698295],[-79.39707,43.698195],[-79.397016,43.697979],[-79.396778,43.697459]],[[-79.39707,43.698195],[-79.397016,43.697979],[-79.396778,43.697459],[-79.396645,43.697356],[-79.396459,43.697367],[-79.39663,43.698295],[-79.396403,43.698357],[-79.390867,43.699486],[-79.38696,43.700306],[-79.386696,43.700347],[-79.38326,43.701095],[-79.382228,43.701301],[-79.38173,43.701413],[-79.380632,43.701632],[-79.37966,43.701852],[-79.378988,43.701972],[-79.378754,43.70204],[-79.376426,43.702501],[-79.374121,43.702993],[-79.374923,43.7051],[-79.375636,43.706933],[-79.375993,43.707807],[-79.376326,43.708698],[-79.376941,43.710296],[-79.37704,43.710657],[-79.377088,43.710882],[-79.377146,43.71103],[-79.377298,43.712024],[-79.377373,43.712393],[-79.377477,43.713085],[-79.37761,43.713844],[-79.377969,43.716065],[-79.37808,43.716711],[-79.378704,43.719714],[-79.378927,43.720969],[-79.378687,43.721015],[-79.378327,43.721105],[-79.378174,43.721155],[-79.3781,43.721196],[-79.378043,43.721244],[-79.377959,43.721335],[-79.377913,43.721407],[-79.377887,43.721479],[-79.377883,43.721523],[-79.377789,43.721621],[-79.377688,43.721702],[-79.377374,43.721772],[-79.375262,43.722179],[-79.375188,43.722205],[-79.375159,43.722224],[-79.375122,43.72227],[-79.375121,43.72231],[-79.375263,43.722663],[-79.375291,43.722681],[-79.375372,43.722684],[-79.375453,43.722673],[-79.376253,43.722504],[-79.377034,43.722352],[-79.378053,43.722134],[-79.378109,43.722226],[-79.378197,43.722398],[-79.378678,43.723621],[-79.378757,43.72379],[-79.379298,43.723732],[-79.37948,43.723702],[-79.379611,43.724323],[-79.379695,43.724611],[-79.37978,43.725007],[-79.37982,43.725093],[-79.380008,43.725362],[-79.380093,43.72547],[-79.380192,43.725578],[-79.380228,43.725637],[-79.381013,43.726489],[-79.38123,43.726701],[-79.38136,43.72685],[-79.38147,43.726994],[-79.381525,43.727089],[-79.381592,43.727264],[-79.38162,43.727417],[-79.381629,43.727611],[-79.381618,43.727746],[-79.381585,43.72796],[-79.381545,43.728668],[-79.381444,43.7301],[-79.381443,43.730234],[-79.381338,43.730644],[-79.381131,43.731635],[-79.3811,43.731753],[-79.381092,43.731863],[-79.381095,43.731995],[-79.381202,43.732662],[-79.381542,43.734508],[-79.381773,43.735636],[-79.381896,43.736401],[-79.382573,43.740047],[-79.383398,43.743984],[-79.383614,43.745099],[-79.383781,43.746087],[-79.384142,43.74787],[-79.384144,43.748052],[-79.384396,43.749219],[-79.384608,43.750258],[-79.384703,43.750746],[-79.384854,43.751642],[-79.385105,43.752849],[-79.385243,43.75347],[-79.385517,43.754812],[-79.385685,43.755564],[-79.385816,43.756222],[-79.385924,43.75682],[-79.386034,43.757508],[-79.386313,43.759117],[-79.386678,43.760835],[-79.386914,43.762361],[-79.387086,43.763127],[-79.38714,43.763304],[-79.387319,43.763986],[-79.387519,43.764643],[-79.387577,43.76481],[-79.387828,43.765738],[-79.388044,43.766582],[-79.388092,43.766886],[-79.388404,43.768184],[-79.388566,43.769047],[-79.388651,43.769373],[-79.388819,43.770087],[-79.389175,43.771645],[-79.389572,43.773468],[-79.389772,43.774326],[-79.38997,43.775234],[-79.390174,43.776087],[-79.390383,43.777046],[-79.390453,43.777403],[-79.391197,43.780625],[-79.391907,43.783862],[-79.392097,43.784756],[-79.392136,43.784998],[-79.392187,43.785222],[-79.392246,43.78558],[-79.392665,43.787702],[-79.392982,43.78922],[-79.393342,43.79112],[-79.393585,43.79229],[-79.394215,43.795118],[-79.394869,43.797922],[-79.395368,43.799945],[-79.3958,43.801865],[-79.395976,43.802569],[-79.396044,43.802801],[-79.396138,43.803018],[-79.396218,43.803263],[-79.396988,43.803093],[-79.397221,43.803135],[-79.397312,43.803219],[-79.397367,43.803328],[-79.397579,43.804061]],[[-79.39707,43.698195],[-79.397016,43.697979],[-79.396778,43.697459],[-79.396645,43.697356],[-79.396459,43.697367],[-79.39663,43.698295],[-79.396403,43.698357],[-79.390867,43.699486],[-79.38696,43.700306],[-79.386696,43.700347],[-79.38326,43.701095],[-79.382228,43.701301],[-79.38173,43.701413],[-79.380632,43.701632],[-79.37966,43.701852],[-79.378988,43.701972],[-79.378754,43.70204],[-79.376426,43.702501],[-79.374121,43.702993],[-79.374923,43.7051],[-79.375636,43.706933],[-79.375993,43.707807],[-79.376326,43.708698],[-79.376941,43.710296],[-79.37704,43.710657],[-79.377088,43.710882],[-79.377146,43.71103],[-79.377298,43.712024],[-79.377373,43.712393],[-79.377477,43.713085],[-79.37761,43.713844],[-79.377969,43.716065],[-79.37808,43.716711],[-79.378704,43.719714],[-79.378927,43.720969],[-79.378687,43.721015],[-79.378327,43.721105],[-79.378174,43.721155],[-79.3781,43.721196],[-79.378043,43.721244],[-79.377959,43.721335],[-79.377913,43.721407],[-79.377887,43.721479],[-79.377883,43.721523],[-79.377789,43.721621],[-79.377707,43.721685]],[[-79.377825,43.721587],[-79.377688,43.721702],[-79.377374,43.721772],[-79.375262,43.722179],[-79.375188,43.722205],[-79.375159,43.722224],[-79.375122,43.72227],[-79.375121,43.72231],[-79.375263,43.722663],[-79.375291,43.722681],[-79.375372,43.722684],[-79.375453,43.722673],[-79.376253,43.722504],[-79.377034,43.722352],[-79.378053,43.722134],[-79.378016,43.722057],[-79.377875,43.721619],[-79.377873,43.721579],[-79.377887,43.721479],[-79.377913,43.721407],[-79.377959,43.721335],[-79.378043,43.721244],[-79.3781,43.721196],[-79.378174,43.721155],[-79.378452,43.721072],[-79.378687,43.721015],[-79.378927,43.720969],[-79.378704,43.719714],[-79.37808,43.716711],[-79.377969,43.716065],[-79.37761,43.713844],[-79.377477,43.713085],[-79.377373,43.712393],[-79.377298,43.712024],[-79.377146,43.71103],[-79.377088,43.710882],[-79.37704,43.710657],[-79.376941,43.710296],[-79.376326,43.708698],[-79.375993,43.707807],[-79.375636,43.706933],[-79.374923,43.7051],[-79.374121,43.702993],[-79.376426,43.702501],[-79.378754,43.70204],[-79.378988,43.701972],[-79.37966,43.701852],[-79.380632,43.701632],[-79.38173,43.701413],[-79.382228,43.701301],[-79.38326,43.701095],[-79.386696,43.700347],[-79.38696,43.700306],[-79.390867,43.699486],[-79.396403,43.698357],[-79.39663,43.698295],[-79.39707,43.698195],[-79.397016,43.697979],[-79.396778,43.697459]],[[-79.39707,43.698195],[-79.397016,43.697979],[-79.396778,43.697459],[-79.396645,43.697356],[-79.396459,43.697367],[-79.39663,43.698295],[-79.396403,43.698357],[-79.390867,43.699486],[-79.38696,43.700306],[-79.386696,43.700347],[-79.38326,43.701095],[-79.382228,43.701301],[-79.38173,43.701413],[-79.380632,43.701632],[-79.37966,43.701852],[-79.378988,43.701972],[-79.378754,43.70204],[-79.376426,43.702501],[-79.374121,43.702993],[-79.374923,43.7051],[-79.375636,43.706933],[-79.375993,43.707807],[-79.376326,43.708698],[-79.376941,43.710296],[-79.37704,43.710657],[-79.377088,43.710882],[-79.377146,43.71103],[-79.377298,43.712024],[-79.377373,43.712393],[-79.377477,43.713085],[-79.37761,43.713844],[-79.377969,43.716065],[-79.37808,43.716711],[-79.378704,43.719714],[-79.378927,43.720969],[-79.378687,43.721015],[-79.378327,43.721105],[-79.378174,43.721155],[-79.3781,43.721196],[-79.378043,43.721244],[-79.377959,43.721335],[-79.377913,43.721407],[-79.377887,43.721479],[-79.377883,43.721523],[-79.377789,43.721621],[-79.377688,43.721702],[-79.377374,43.721772],[-79.375262,43.722179],[-79.375188,43.722205],[-79.375159,43.722224],[-79.375122,43.72227],[-79.375121,43.72231],[-79.375263,43.722663],[-79.375291,43.722681],[-79.375372,43.722684],[-79.375453,43.722673],[-79.376253,43.722504],[-79.377034,43.722352],[-79.378053,43.722134],[-79.378016,43.722057],[-79.377875,43.721619],[-79.377873,43.721579],[-79.377887,43.721479],[-79.377913,43.721407],[-79.377959,43.721335],[-79.378043,43.721244],[-79.3781,43.721196],[-79.378174,43.721155],[-79.378452,43.721072],[-79.378687,43.721015],[-79.378927,43.720969],[-79.379067,43.721757],[-79.379611,43.724323],[-79.379695,43.724611],[-79.37978,43.725007],[-79.37982,43.725093],[-79.379878,43.725183],[-79.380093,43.72547],[-79.380192,43.725578],[-79.380228,43.725637],[-79.381013,43.726489],[-79.38123,43.726701],[-79.38136,43.72685],[-79.38147,43.726994],[-79.381525,43.727089],[-79.381592,43.727264],[-79.38162,43.727417],[-79.381629,43.727611],[-79.381618,43.727746],[-79.381585,43.72796],[-79.381545,43.728668],[-79.381444,43.7301],[-79.381443,43.730234],[-79.381338,43.730644],[-79.381131,43.731635],[-79.3811,43.731753],[-79.381092,43.731863],[-79.381095,43.731995],[-79.381202,43.732662],[-79.381542,43.734508],[-79.381773,43.735636],[-79.381896,43.736401],[-79.382573,43.740047],[-79.383398,43.743984],[-79.383614,43.745099],[-79.383781,43.746087],[-79.384142,43.74787],[-79.384144,43.748052],[-79.384396,43.749219],[-79.384608,43.750258],[-79.384703,43.750746],[-79.384854,43.751642],[-79.385105,43.752849],[-79.385243,43.75347],[-79.385517,43.754812],[-79.385685,43.755564],[-79.385816,43.756222],[-79.385924,43.75682],[-79.386034,43.757508],[-79.386313,43.759117],[-79.386678,43.760835],[-79.386914,43.762361],[-79.387086,43.763127],[-79.38714,43.763304],[-79.387319,43.763986],[-79.387519,43.764643],[-79.387577,43.76481],[-79.387828,43.765738],[-79.388044,43.766582],[-79.388092,43.766886],[-79.388404,43.768184],[-79.388566,43.769047],[-79.388651,43.769373],[-79.388819,43.770087],[-79.389175,43.771645],[-79.389572,43.773468],[-79.389772,43.774326],[-79.38997,43.775234],[-79.390174,43.776087],[-79.390383,43.777046],[-79.390453,43.777403],[-79.391197,43.780625],[-79.391907,43.783862],[-79.392097,43.784756],[-79.392136,43.784998],[-79.392187,43.785222],[-79.392246,43.78558],[-79.392665,43.787702],[-79.392982,43.78922],[-79.393342,43.79112],[-79.393585,43.79229],[-79.394215,43.795118],[-79.394869,43.797922],[-79.395368,43.799945],[-79.3958,43.801865],[-79.395976,43.802569],[-79.396044,43.802801],[-79.396138,43.803018],[-79.396218,43.803263],[-79.396988,43.803093],[-79.397221,43.803135],[-79.397312,43.803219],[-79.397367,43.803328],[-79.397579,43.804061]]]},"properties":{"id":8359979,"onestop_id":"r-dpz8c-11","feed_onestop_id":"f-dpz8-ttc","feed_version_sha1":"16d9658ff57ec6534540fee2b47383f7a9d423d0","route_id":66726,"route_color":"FF0000","route_desc":"","route_long_name":"BAYVIEW","route_short_name":11,"route_type":3,"route_url":"","alerts":null,"route_stops":[{"stop":{"id":177679346,"stop_id":"265","stop_name":"Davisville Ave at Cleveland St","geometry":{"type":"Point","coordinates":[-79.378112,43.702088]},"__typename":"Stop"},"__typename":"RouteStop"},{"stop":{"id":177679427,"stop_id":"394","stop_name":"Bayview Ave at Vallyanna Dr","geometry":{"type":"Point","coordinates":[-79.379442,43.724199]},"__typename":"Stop"},"__typename":"RouteStop"},{"stop":{"id":177679647,"stop_id":"730","stop_name":"Davisville Ave at Pailton Cres","geometry":{"type":"Point","coordinates":[-79.392008,43.699192]},"__typename":"Stop"},"__typename":"RouteStop"},{"stop":{"id":177679652,"stop_id":"737","stop_name":"Davisville Ave at Belle Ayre Blvd","geometry":{"type":"Point","coordinates":[-79.383433,43.700997]},"__typename":"Stop"},"__typename":"RouteStop"},{"stop":{"id":177679679,"stop_id":"767","stop_name":"Davisville Ave at Mt Pleasant Rd","geometry":{"type":"Point","coordinates":[-79.38676,43.700417]},"__typename":"Stop"},"__typename":"RouteStop"},{"stop":{"id":177679745,"stop_id":"850","stop_name":"Raab Blvd at Hospital Rd West Side (K & L Wings)","geometry":{"type":"Point","coordinates":[-79.376201,43.722578]},"__typename":"Stop"},"__typename":"RouteStop"},{"stop":{"id":177679746,"stop_id":"851","stop_name":"Raab Blvd at Hospital Rd West Side (K & L Wings)","geometry":{"type":"Point","coordinates":[-79.375956,43.72264]},"__typename":"Stop"},"__typename":"RouteStop"},{"stop":{"id":177679747,"stop_id":"852","stop_name":"Wellness Way at Hospital Rd (Odette Cancer Centre)","geometry":{"type":"Point","coordinates":[-79.377773,43.721379]},"__typename":"Stop"},"__typename":"RouteStop"},{"stop":{"id":177679748,"stop_id":"853","stop_name":"Wellness Way at Hospital Rd (Odette Cancer Centre)","geometry":{"type":"Point","coordinates":[-79.377723,43.721476]},"__typename":"Stop"},"__typename":"RouteStop"},{"stop":{"id":177679749,"stop_id":"854","stop_name":"Hospital Rd at Wellness Way East Side (Sunnybrook Main Ent)","geometry":{"type":"Point","coordinates":[-79.376853,43.72178]},"__typename":"Stop"},"__typename":"RouteStop"},{"stop":{"id":177679750,"stop_id":"855","stop_name":"Hospital Rd at Wellness Way East Side (Sunnybrook Main Ent)","geometry":{"type":"Point","coordinates":[-79.376728,43.72182]},"__typename":"Stop"},"__typename":"RouteStop"},{"stop":{"id":177679891,"stop_id":"1040","stop_name":"2395 Bayview Ave (Bob Rumball Centre For The Deaf)","geometry":{"type":"Point","coordinates":[-79.381269,43.733948]},"__typename":"Stop"},"__typename":"RouteStop"},{"stop":{"id":177679984,"stop_id":"1149","stop_name":"Davisville Ave at Yonge St East Side","geometry":{"type":"Point","coordinates":[-79.396197,43.69832]},"__typename":"Stop"},"__typename":"RouteStop"},{"stop":{"id":177680043,"stop_id":"1218","stop_name":"Bayview Ave at Ruth Ave","geometry":{"type":"Point","coordinates":[-79.394137,43.794226]},"__typename":"Stop"},"__typename":"RouteStop"},{"stop":{"id":177680149,"stop_id":"1343","stop_name":"Bayview Ave at Heathcote Ave","geometry":{"type":"Point","coordinates":[-79.384794,43.752072]},"__typename":"Stop"},"__typename":"RouteStop"},{"stop":{"id":177680268,"stop_id":"1477","stop_name":"Bayview Ave at Byng Ave North Side","geometry":{"type":"Point","coordinates":[-79.391381,43.782213]},"__typename":"Stop"},"__typename":"RouteStop"},{"stop":{"id":177680296,"stop_id":"1507","stop_name":"Bayview Ave at Byng Ave South Side","geometry":{"type":"Point","coordinates":[-79.391546,43.781659]},"__typename":"Stop"},"__typename":"RouteStop"},{"stop":{"id":177680420,"stop_id":"1661","stop_name":"Bayview Ave at Garnier Park","geometry":{"type":"Point","coordinates":[-79.395495,43.801054]},"__typename":"Stop"},"__typename":"RouteStop"},{"stop":{"id":177680500,"stop_id":"1760","stop_name":"Bayview Ave at Truman Rd","geometry":{"type":"Point","coordinates":[-79.386402,43.760431]},"__typename":"Stop"},"__typename":"RouteStop"},{"stop":{"id":177680568,"stop_id":"1839","stop_name":"Bayview Ave at Fleming Cres North Side","geometry":{"type":"Point","coordinates":[-79.375606,43.707182]},"__typename":"Stop"},"__typename":"RouteStop"},{"stop":{"id":177680751,"stop_id":"2073","stop_name":"Davisville Ave at Mt Pleasant Rd","geometry":{"type":"Point","coordinates":[-79.387156,43.700197]},"__typename":"Stop"},"__typename":"RouteStop"},{"stop":{"id":177680835,"stop_id":"2169","stop_name":"Bayview Ave at York Mills Rd","geometry":{"type":"Point","coordinates":[-79.384408,43.748322]},"__typename":"Stop"},"__typename":"RouteStop"},{"stop":{"id":177680913,"stop_id":"2268","stop_name":"Bayview Ave at Burleigh Heights Dr North Side","geometry":{"type":"Point","coordinates":[-79.390855,43.77972]},"__typename":"Stop"},"__typename":"RouteStop"},{"stop":{"id":177680962,"stop_id":"2336","stop_name":"Bayview Ave at Post Rd North Side","geometry":{"type":"Point","coordinates":[-79.381847,43.736777]},"__typename":"Stop"},"__typename":"RouteStop"},{"stop":{"id":177680973,"stop_id":"2349","stop_name":"Bayview Ave at York Mills Rd","geometry":{"type":"Point","coordinates":[-79.383934,43.747851]},"__typename":"Stop"},"__typename":"RouteStop"},{"stop":{"id":177681029,"stop_id":"2419","stop_name":"Bayview Ave at McKee Ave","geometry":{"type":"Point","coordinates":[-79.390729,43.778139]},"__typename":"Stop"},"__typename":"RouteStop"},{"stop":{"id":177681148,"stop_id":"2557","stop_name":"Bayview Ave at Fife Rd","geometry":{"type":"Point","coordinates":[-79.385373,43.754733]},"__typename":"Stop"},"__typename":"RouteStop"},{"stop":{"id":177681177,"stop_id":"2591","stop_name":"Bayview Ave at Lawrence Ave East (York U Glendon Campus)","geometry":{"type":"Point","coordinates":[-79.382237,43.727687]},"__typename":"Stop"},"__typename":"RouteStop"},{"stop":{"id":177681188,"stop_id":"2604","stop_name":"Bayview Ave at Broadway Ave North Side","geometry":{"type":"Point","coordinates":[-79.377511,43.714395]},"__typename":"Stop"},"__typename":"RouteStop"},{"stop":{"id":177681190,"stop_id":"2606","stop_name":"Bayview Ave at Kilgour Rd North Side (Cnib)","geometry":{"type":"Point","coordinates":[-79.378025,43.71722]},"__typename":"Stop"},"__typename":"RouteStop"},{"stop":{"id":177681261,"stop_id":"2685","stop_name":"Bayview Ave at Newton Dr","geometry":{"type":"Point","coordinates":[-79.395302,43.799231]},"__typename":"Stop"},"__typename":"RouteStop"},{"stop":{"id":177681432,"stop_id":"2896","stop_name":"Bayview Ave at Forest Heights Blvd","geometry":{"type":"Point","coordinates":[-79.386317,43.758165]},"__typename":"Stop"},"__typename":"RouteStop"},{"stop":{"id":177681494,"stop_id":"2968","stop_name":"Bayview Ave at Tudor Gate North Side","geometry":{"type":"Point","coordinates":[-79.383183,43.743657]},"__typename":"Stop"},"__typename":"RouteStop"},{"stop":{"id":177681748,"stop_id":"3264","stop_name":"Davisville Ave at Belle Ayre Blvd","geometry":{"type":"Point","coordinates":[-79.383144,43.701157]},"__typename":"Stop"},"__typename":"RouteStop"},{"stop":{"id":177681875,"stop_id":"3418","stop_name":"Bayview Ave at Burleigh Heights Dr South Side","geometry":{"type":"Point","coordinates":[-79.390994,43.779345]},"__typename":"Stop"},"__typename":"RouteStop"},{"stop":{"id":177681914,"stop_id":"3463","stop_name":"Bayview Ave at Millwood Rd","geometry":{"type":"Point","coordinates":[-79.374731,43.704335]},"__typename":"Stop"},"__typename":"RouteStop"},{"stop":{"id":177682112,"stop_id":"3714","stop_name":"Bayview Ave at York Mills Rd South Side","geometry":{"type":"Point","coordinates":[-79.384148,43.747363]},"__typename":"Stop"},"__typename":"RouteStop"},{"stop":{"id":177682122,"stop_id":"3724","stop_name":"Bayview Ave at Argonne Cres","geometry":{"type":"Point","coordinates":[-79.393853,43.794029]},"__typename":"Stop"},"__typename":"RouteStop"},{"stop":{"id":177682132,"stop_id":"3734","stop_name":"Bayview Ave at Citation Dr North Side","geometry":{"type":"Point","coordinates":[-79.38976,43.774828]},"__typename":"Stop"},"__typename":"RouteStop"},{"stop":{"id":177682229,"stop_id":"3858","stop_name":"Bayview Ave at Forest Heights Blvd","geometry":{"type":"Point","coordinates":[-79.385998,43.758126]},"__typename":"Stop"},"__typename":"RouteStop"},{"stop":{"id":177682730,"stop_id":"4483","stop_name":"Bayview Ave at The Bridle Path","geometry":{"type":"Point","coordinates":[-79.382416,43.738568]},"__typename":"Stop"},"__typename":"RouteStop"},{"stop":{"id":177682879,"stop_id":"4657","stop_name":"Bayview Ave at Manor Rd East","geometry":{"type":"Point","coordinates":[-79.375756,43.707037]},"__typename":"Stop"},"__typename":"RouteStop"},{"stop":{"id":177682892,"stop_id":"4677","stop_name":"Bayview Ave at Parkview Ave","geometry":{"type":"Point","coordinates":[-79.390312,43.776212]},"__typename":"Stop"},"__typename":"RouteStop"},{"stop":{"id":177683147,"stop_id":"4995","stop_name":"Davisville Ave at Forman Ave","geometry":{"type":"Point","coordinates":[-79.380502,43.701721]},"__typename":"Stop"},"__typename":"RouteStop"},{"stop":{"id":177683231,"stop_id":"5096","stop_name":"Bayview Ave at Country Lane","geometry":{"type":"Point","coordinates":[-79.382511,43.740267]},"__typename":"Stop"},"__typename":"RouteStop"},{"stop":{"id":177683300,"stop_id":"5177","stop_name":"Davisville Ave at Cleveland St","geometry":{"type":"Point","coordinates":[-79.377901,43.702242]},"__typename":"Stop"},"__typename":"RouteStop"},{"stop":{"id":177683371,"stop_id":"5258","stop_name":"3311 Bayview Ave","geometry":{"type":"Point","coordinates":[-79.39309,43.790441]},"__typename":"Stop"},"__typename":"RouteStop"},{"stop":{"id":177683393,"stop_id":"5285","stop_name":"Bayview Ave at Post Rd","geometry":{"type":"Point","coordinates":[-79.382082,43.736547]},"__typename":"Stop"},"__typename":"RouteStop"},{"stop":{"id":177683451,"stop_id":"5366","stop_name":"Bayview Ave at Holmes Ave","geometry":{"type":"Point","coordinates":[-79.391817,43.783024]},"__typename":"Stop"},"__typename":"RouteStop"},{"stop":{"id":177683504,"stop_id":"5434","stop_name":"Bayview Ave at Empress Ave South Side","geometry":{"type":"Point","coordinates":[-79.389824,43.77398]},"__typename":"Stop"},"__typename":"RouteStop"},{"stop":{"id":177683569,"stop_id":"5512","stop_name":"Bayview Ave at Valley Rd","geometry":{"type":"Point","coordinates":[-79.383516,43.744116]},"__typename":"Stop"},"__typename":"RouteStop"},{"stop":{"id":177683592,"stop_id":"5543","stop_name":"Bayview Ave at Sheppard Ave East (Bayview Station)","geometry":{"type":"Point","coordinates":[-79.388244,43.766792]},"__typename":"Stop"},"__typename":"RouteStop"},{"stop":{"id":177683620,"stop_id":"5579","stop_name":"Bayview Ave at Kilgour Rd (Cnib)","geometry":{"type":"Point","coordinates":[-79.378325,43.717092]},"__typename":"Stop"},"__typename":"RouteStop"},{"stop":{"id":177683654,"stop_id":"5614","stop_name":"Bayview Ave at Glenvale Blvd","geometry":{"type":"Point","coordinates":[-79.377795,43.71605]},"__typename":"Stop"},"__typename":"RouteStop"},{"stop":{"id":177683770,"stop_id":"5753","stop_name":"Bayview Ave at Sheppard Ave East North Side (Bayview Stn)","geometry":{"type":"Point","coordinates":[-79.387913,43.767139]},"__typename":"Stop"},"__typename":"RouteStop"},{"stop":{"id":177683856,"stop_id":"5861","stop_name":"Bayview Ave at Garnier Crt","geometry":{"type":"Point","coordinates":[-79.395035,43.799066]},"__typename":"Stop"},"__typename":"RouteStop"},{"stop":{"id":177683897,"stop_id":"5910","stop_name":"Bayview Ave at Bayview Mews Lane","geometry":{"type":"Point","coordinates":[-79.388448,43.769272]},"__typename":"Stop"},"__typename":"RouteStop"},{"stop":{"id":177683907,"stop_id":"5920","stop_name":"Bayview Ave at Heathcote Ave","geometry":{"type":"Point","coordinates":[-79.385153,43.75232]},"__typename":"Stop"},"__typename":"RouteStop"},{"stop":{"id":177684040,"stop_id":"6069","stop_name":"Bayview Ave at York Rd South Side","geometry":{"type":"Point","coordinates":[-79.383845,43.745809]},"__typename":"Stop"},"__typename":"RouteStop"},{"stop":{"id":177684067,"stop_id":"6107","stop_name":"Bayview Ave at Dawlish Ave South Side","geometry":{"type":"Point","coordinates":[-79.379746,43.7243]},"__typename":"Stop"},"__typename":"RouteStop"},{"stop":{"id":177684218,"stop_id":"6292","stop_name":"Bayview Ave at Steeles Ave East South Side","geometry":{"type":"Point","coordinates":[-79.39615,43.802654]},"__typename":"Stop"},"__typename":"RouteStop"},{"stop":{"id":177684224,"stop_id":"6300","stop_name":"Bayview Ave at Hollywood Ave","geometry":{"type":"Point","coordinates":[-79.389136,43.770859]},"__typename":"Stop"},"__typename":"RouteStop"},{"stop":{"id":177684332,"stop_id":"6427","stop_name":"Bayview Ave at Foxwarren Dr","geometry":{"type":"Point","coordinates":[-79.388789,43.770495]},"__typename":"Stop"},"__typename":"RouteStop"},{"stop":{"id":177684452,"stop_id":"6569","stop_name":"Davisville Ave at Mt Pleasant Rd West Side","geometry":{"type":"Point","coordinates":[-79.38748,43.700276]},"__typename":"Stop"},"__typename":"RouteStop"},{"stop":{"id":177684501,"stop_id":"6632","stop_name":"Bayview Ave at Wood Ave","geometry":{"type":"Point","coordinates":[-79.382049,43.727063]},"__typename":"Stop"},"__typename":"RouteStop"},{"stop":{"id":177684594,"stop_id":"6743","stop_name":"Bayview Ave at Cummer Ave","geometry":{"type":"Point","coordinates":[-79.393719,43.792342]},"__typename":"Stop"},"__typename":"RouteStop"},{"stop":{"id":177684712,"stop_id":"6886","stop_name":"Bayview Ave at Finch Ave East North Side","geometry":{"type":"Point","coordinates":[-79.392136,43.785614]},"__typename":"Stop"},"__typename":"RouteStop"},{"stop":{"id":177684837,"stop_id":"7029","stop_name":"Bayview Ave at Eglinton Ave East","geometry":{"type":"Point","coordinates":[-79.377483,43.712432]},"__typename":"Stop"},"__typename":"RouteStop"},{"stop":{"id":177684852,"stop_id":"7054","stop_name":"Bayview Ave at Broadway Ave","geometry":{"type":"Point","coordinates":[-79.377724,43.713964]},"__typename":"Stop"},"__typename":"RouteStop"},{"stop":{"id":177684991,"stop_id":"7223","stop_name":"Bayview Ave at Ruddington Dr South Side","geometry":{"type":"Point","coordinates":[-79.3928,43.787767]},"__typename":"Stop"},"__typename":"RouteStop"},{"stop":{"id":177685016,"stop_id":"7256","stop_name":"Bayview Ave at Fifeshire Rd (North)","geometry":{"type":"Point","coordinates":[-79.386863,43.760825]},"__typename":"Stop"},"__typename":"RouteStop"},{"stop":{"id":177685177,"stop_id":"7447","stop_name":"Bayview Ave at Hillcrest Ave","geometry":{"type":"Point","coordinates":[-79.389534,43.772666]},"__typename":"Stop"},"__typename":"RouteStop"},{"stop":{"id":177685188,"stop_id":"7462","stop_name":"Bayview Ave at Wilket Rd","geometry":{"type":"Point","coordinates":[-79.383662,43.74599]},"__typename":"Stop"},"__typename":"RouteStop"},{"stop":{"id":177685192,"stop_id":"7466","stop_name":"Davisville Ave at Forman Ave","geometry":{"type":"Point","coordinates":[-79.380739,43.701547]},"__typename":"Stop"},"__typename":"RouteStop"},{"stop":{"id":177685206,"stop_id":"7484","stop_name":"84 Davisville Ave (Salvation Army)","geometry":{"type":"Point","coordinates":[-79.393026,43.699124]},"__typename":"Stop"},"__typename":"RouteStop"},{"stop":{"id":177685271,"stop_id":"7559","stop_name":"Davisville Ave at Acacia Rd","geometry":{"type":"Point","coordinates":[-79.389801,43.69965]},"__typename":"Stop"},"__typename":"RouteStop"},{"stop":{"id":177685428,"stop_id":"7745","stop_name":"Bayview Ave at Opposite Garnier Park","geometry":{"type":"Point","coordinates":[-79.395689,43.800927]},"__typename":"Stop"},"__typename":"RouteStop"},{"stop":{"id":177685555,"stop_id":"7896","stop_name":"Bayview Ave at Cummer Ave","geometry":{"type":"Point","coordinates":[-79.393442,43.792145]},"__typename":"Stop"},"__typename":"RouteStop"},{"stop":{"id":177685596,"stop_id":"7942","stop_name":"Bayview Ave at Millwood Rd","geometry":{"type":"Point","coordinates":[-79.374446,43.704151]},"__typename":"Stop"},"__typename":"RouteStop"},{"stop":{"id":177685657,"stop_id":"8013","stop_name":"Davisville Ave at Bayview Ave West Side","geometry":{"type":"Point","coordinates":[-79.374563,43.702938]},"__typename":"Stop"},"__typename":"RouteStop"},{"stop":{"id":177685708,"stop_id":"8067","stop_name":"Bayview Ave at Parkhurst Blvd North Side","geometry":{"type":"Point","coordinates":[-79.376279,43.708992]},"__typename":"Stop"},"__typename":"RouteStop"},{"stop":{"id":177685777,"stop_id":"8152","stop_name":"Bayview Ave at Blythwood Rd","geometry":{"type":"Point","coordinates":[-79.378698,43.720818]},"__typename":"Stop"},"__typename":"RouteStop"},{"stop":{"id":177685800,"stop_id":"8178","stop_name":"Bayview Ave at Ruddington Dr","geometry":{"type":"Point","coordinates":[-79.392586,43.787893]},"__typename":"Stop"},"__typename":"RouteStop"},{"stop":{"id":177685866,"stop_id":"8266","stop_name":"Bayview Ave at Fifeshire Rd (South) South Side","geometry":{"type":"Point","coordinates":[-79.385637,43.75459]},"__typename":"Stop"},"__typename":"RouteStop"},{"stop":{"id":177685917,"stop_id":"8328","stop_name":"Bayview Ave at Lawrence Ave East (York U Glendon Campus)","geometry":{"type":"Point","coordinates":[-79.381568,43.727267]},"__typename":"Stop"},"__typename":"RouteStop"},{"stop":{"id":177685923,"stop_id":"8337","stop_name":"3292 Bayview Ave","geometry":{"type":"Point","coordinates":[-79.393248,43.789946]},"__typename":"Stop"},"__typename":"RouteStop"},{"stop":{"id":177685948,"stop_id":"8365","stop_name":"Davisville Ave at Acacia Rd","geometry":{"type":"Point","coordinates":[-79.389138,43.699932]},"__typename":"Stop"},"__typename":"RouteStop"},{"stop":{"id":177685980,"stop_id":"8400","stop_name":"Bayview Ave at Blythwood Rd South Side","geometry":{"type":"Point","coordinates":[-79.378945,43.720431]},"__typename":"Stop"},"__typename":"RouteStop"},{"stop":{"id":177685986,"stop_id":"8408","stop_name":"Bayview Ave at Sunnydene Cres South Side","geometry":{"type":"Point","coordinates":[-79.378769,43.71947]},"__typename":"Stop"},"__typename":"RouteStop"},{"stop":{"id":177686087,"stop_id":"8524","stop_name":"Bayview Ave at The Bridle Path","geometry":{"type":"Point","coordinates":[-79.382163,43.738357]},"__typename":"Stop"},"__typename":"RouteStop"},{"stop":{"id":177686150,"stop_id":"8600","stop_name":"2350 Bayview Ave (The Granite Club)","geometry":{"type":"Point","coordinates":[-79.381593,43.734133]},"__typename":"Stop"},"__typename":"RouteStop"},{"stop":{"id":177686172,"stop_id":"8627","stop_name":"Bayview Ave at Hillcrest Ave","geometry":{"type":"Point","coordinates":[-79.389207,43.77233]},"__typename":"Stop"},"__typename":"RouteStop"},{"stop":{"id":177686216,"stop_id":"8684","stop_name":"Bayview Ave at Soudan Ave","geometry":{"type":"Point","coordinates":[-79.376494,43.708916]},"__typename":"Stop"},"__typename":"RouteStop"},{"stop":{"id":177686313,"stop_id":"8803","stop_name":"Bayview Ave at McKee Ave","geometry":{"type":"Point","coordinates":[-79.390444,43.7779]},"__typename":"Stop"},"__typename":"RouteStop"},{"stop":{"id":177686817,"stop_id":"9415","stop_name":"Bayview Ave at Arjay Cres","geometry":{"type":"Point","coordinates":[-79.382719,43.740168]},"__typename":"Stop"},"__typename":"RouteStop"},{"stop":{"id":177686926,"stop_id":"9543","stop_name":"Bayview Ave at Bayview Ridge Cres","geometry":{"type":"Point","coordinates":[-79.383159,43.742341]},"__typename":"Stop"},"__typename":"RouteStop"},{"stop":{"id":177686989,"stop_id":"9624","stop_name":"Bayview Ave at Eglinton Ave East North Side","geometry":{"type":"Point","coordinates":[-79.377019,43.711559]},"__typename":"Stop"},"__typename":"RouteStop"},{"stop":{"id":177687016,"stop_id":"9655","stop_name":"Steeles Ave East Loop at Bayview Ave","geometry":{"type":"Point","coordinates":[-79.397336,43.803431]},"__typename":"Stop"},"__typename":"RouteStop"},{"stop":{"id":177687047,"stop_id":"9693","stop_name":"Davisville Ave at Yonge St","geometry":{"type":"Point","coordinates":[-79.395939,43.698505]},"__typename":"Stop"},"__typename":"RouteStop"},{"stop":{"id":177687057,"stop_id":"9706","stop_name":"Bayview Ave at Finch Ave East","geometry":{"type":"Point","coordinates":[-79.392374,43.785158]},"__typename":"Stop"},"__typename":"RouteStop"},{"stop":{"id":177687441,"stop_id":"10168","stop_name":"3377 Bayview Ave","geometry":{"type":"Point","coordinates":[-79.394524,43.797005]},"__typename":"Stop"},"__typename":"RouteStop"},{"stop":{"id":177687611,"stop_id":"10375","stop_name":"Davisville Ave at Bayview Ave","geometry":{"type":"Point","coordinates":[-79.374692,43.702804]},"__typename":"Stop"},"__typename":"RouteStop"},{"stop":{"id":177687695,"stop_id":"12890","stop_name":"Wellness Way at Armistice Dr (Wellspring Centre)","geometry":{"type":"Point","coordinates":[-79.378616,43.723603]},"__typename":"Stop"},"__typename":"RouteStop"},{"stop":{"id":177687788,"stop_id":"14170","stop_name":"Davisville Station","geometry":{"type":"Point","coordinates":[-79.396868,43.69763]},"__typename":"Stop"},"__typename":"RouteStop"},{"stop":{"id":177688253,"stop_id":"14954","stop_name":"Bayview Ave at Brenham Cres","geometry":{"type":"Point","coordinates":[-79.394556,43.796194]},"__typename":"Stop"},"__typename":"RouteStop"},{"stop":{"id":177688412,"stop_id":"15394","stop_name":"Bayview Ave at Bayview Mews Lane","geometry":{"type":"Point","coordinates":[-79.388828,43.769522]},"__typename":"Stop"},"__typename":"RouteStop"}],"agency":{"id":135533,"agency_id":"1","agency_name":"TTC","onestop_id":"o-dpz8-ttc","__typename":"Agency"},"headways":[{"dow_category":1,"service_date":"2022-09-06","direction_id":1,"headway_secs":660,"departures":["05:20:02","05:45:02","06:05:02","06:20:02","06:30:02","06:40:02","06:51:44","07:01:44","07:12:44","07:22:44","07:33:44","07:38:44","07:43:44","07:54:44","08:04:44","08:15:44","08:25:44","08:36:44","08:46:44","08:57:44","09:09:44","09:22:44","09:35:44","09:48:44","10:01:44","10:14:44","10:27:44","10:40:44","10:53:44","11:06:44","11:19:44","11:32:44","11:45:44","11:58:44","12:11:44","12:24:44","12:37:44","12:50:44","13:03:44","13:16:44","13:29:44","13:42:44","13:55:44","14:08:44","14:21:44","14:34:44","14:47:44","14:59:44","15:08:44","15:17:44","15:26:44","15:35:44","15:44:44","15:53:44","16:02:44","16:11:44","16:20:44","16:29:44","16:38:44","16:47:44","16:56:44","17:05:44","17:14:44","17:23:44","17:32:44","17:41:44","17:50:44","17:59:44","18:08:44","18:17:44","18:26:44","18:35:44","18:44:44","18:53:44","19:02:44","19:10:44","19:24:44","19:37:44","19:51:44","20:05:44","20:19:44","20:33:44","20:47:44","21:01:44","21:15:44","21:29:02","21:43:02","21:53:02","22:03:21","22:14:21","22:25:21","22:38:21","22:50:21","23:03:21","23:15:21","23:28:21","23:40:21","23:53:21","24:05:21","24:18:21","24:30:21","24:43:21","24:58:21","25:13:21"],"__typename":"RouteHeadway"},{"dow_category":6,"service_date":"2022-09-10","direction_id":1,"headway_secs":900,"departures":["05:25:44","05:55:44","06:10:44","06:25:44","06:40:44","06:55:44","07:10:44","07:25:44","07:40:44","07:55:44","08:10:44","08:25:44","08:40:44","08:55:44","09:10:44","09:25:44","09:40:44","09:55:44","10:10:44","10:25:44","10:40:44","10:55:44","11:10:44","11:25:44","11:40:44","11:55:44","12:10:44","12:25:44","12:40:44","12:55:44","13:10:44","13:25:44","13:40:44","13:55:44","14:10:44","14:25:44","14:40:44","14:55:44","15:10:44","15:25:44","15:40:44","15:55:44","16:10:44","16:25:44","16:40:44","16:55:44","17:10:44","17:25:44","17:40:44","17:55:44","18:10:44","18:23:44","18:36:44","18:48:44","19:00:44","19:12:44","19:24:44","19:36:44","19:48:44","20:00:44","20:12:44","20:24:44","20:36:44","20:48:44","21:00:44","21:12:44","21:24:44","21:36:44","21:48:44","22:00:44","22:12:44","22:24:44","22:47:02","23:11:02","23:35:02","23:59:02","24:23:02","24:47:02","25:11:02"],"__typename":"RouteHeadway"},{"dow_category":7,"service_date":"2022-09-04","direction_id":1,"headway_secs":1200,"departures":["05:51:44","06:09:44","06:27:44","06:45:44","07:03:44","07:20:44","07:40:44","08:00:44","08:20:44","08:40:44","09:00:44","09:20:44","09:40:44","10:00:44","10:20:44","10:40:44","11:00:44","11:10:44","11:25:44","11:40:44","11:55:44","12:10:44","12:25:44","12:40:44","12:55:44","13:10:44","13:25:44","13:40:44","13:55:44","14:10:44","14:25:44","14:40:44","14:55:44","15:10:44","15:25:44","15:40:44","15:55:44","16:10:44","16:25:44","16:40:44","16:55:44","17:10:44","17:25:44","17:40:44","17:55:44","18:10:44","18:25:44","18:40:44","18:55:44","19:10:44","19:23:44","19:35:44","19:47:44","19:59:44","20:11:44","20:23:44","20:35:44","20:47:44","20:59:44","21:11:44","21:23:44","21:35:44","21:47:02","21:59:02","22:11:02","22:23:02","22:35:02","22:47:02","23:11:02","23:35:02","23:59:02","24:23:02","24:47:02","25:11:02"],"__typename":"RouteHeadway"},{"dow_category":6,"service_date":"2022-09-10","direction_id":0,"headway_secs":900,"departures":["05:57:53","06:27:53","06:57:53","07:12:53","07:27:53","07:42:53","07:57:53","08:12:53","08:30:53","08:45:53","09:00:53","09:15:53","09:30:53","09:45:53","10:00:53","10:15:53","10:30:53","10:45:53","11:00:53","11:15:53","11:30:53","11:45:53","12:00:53","12:15:53","12:30:53","12:45:53","13:00:53","13:15:53","13:30:53","13:45:53","14:00:53","14:15:53","14:30:53","14:45:53","15:00:53","15:15:53","15:30:53","15:45:53","16:00:53","16:15:53","16:30:53","16:45:53","17:00:53","17:15:53","17:30:53","17:45:53","18:00:53","18:13:53","18:26:53","18:39:53","18:51:53","19:03:53","19:15:53","19:27:53","19:39:53","19:51:53","20:03:53","20:15:53","20:27:53","20:39:53","20:51:53","21:03:53","21:15:53","21:27:53","21:39:53","21:51:53","22:03:53","22:15:53","22:27:53","22:32:54","22:56:54","23:20:54","23:44:54","24:08:54","24:32:54","24:56:54","25:20:54"],"__typename":"RouteHeadway"},{"dow_category":1,"service_date":"2022-09-06","direction_id":0,"headway_secs":660,"departures":["06:01:55","06:20:54","06:35:54","06:49:54","06:54:54","07:01:54","07:19:54","07:29:54","07:40:54","07:50:54","08:01:54","08:11:54","08:22:54","08:32:54","08:43:54","08:53:54","09:04:54","09:14:54","09:20:54","09:25:54","09:35:54","09:53:54","10:09:53","10:25:53","10:36:53","10:49:53","11:02:53","11:15:53","11:28:53","11:41:53","11:54:53","12:07:53","12:20:53","12:33:53","12:46:53","12:59:53","13:12:53","13:25:53","13:38:53","13:51:53","14:04:53","14:17:53","14:30:53","14:43:53","14:56:53","15:09:53","15:21:53","15:33:53","15:40:53","15:43:53","15:49:53","15:58:53","16:07:53","16:16:53","16:25:53","16:34:53","16:43:53","16:52:53","17:01:53","17:10:53","17:19:53","17:28:53","17:37:53","17:46:53","17:55:53","18:04:53","18:13:53","18:22:53","18:31:53","18:40:53","18:49:53","18:58:53","19:07:53","19:16:53","19:25:53","19:34:53","19:41:54","19:52:54","20:05:54","20:19:54","20:33:54","20:47:54","21:01:54","21:15:54","21:29:54","21:43:54","21:56:54","22:07:54","22:18:55","22:31:55","22:41:55","22:53:55","23:06:55","23:18:55","23:30:55","23:43:55","23:55:55","24:08:55","24:20:55","24:33:55","24:45:55","24:58:55","25:10:55","25:34:55"],"__typename":"RouteHeadway"},{"dow_category":7,"service_date":"2022-09-04","direction_id":0,"headway_secs":1200,"departures":["06:16:53","06:34:53","06:52:53","07:10:53","07:28:53","07:48:53","08:10:53","08:30:53","08:50:53","09:10:53","09:30:53","09:50:53","10:10:53","10:30:53","10:50:53","11:10:53","11:29:53","11:40:53","11:59:53","12:15:53","12:30:53","12:45:53","13:00:53","13:15:53","13:30:53","13:45:53","14:00:53","14:15:53","14:30:53","14:45:53","15:00:53","15:15:53","15:30:53","15:45:53","16:00:53","16:15:53","16:30:53","16:45:53","17:00:53","17:15:53","17:30:53","17:45:53","18:00:53","18:15:53","18:30:53","18:37:53","18:54:53","19:07:53","19:24:53","19:32:53","19:46:53","19:58:53","20:10:53","20:22:53","20:34:53","20:46:53","20:58:53","21:10:53","21:22:53","21:32:53","21:46:53","21:51:53","22:05:54","22:12:54","22:36:54","22:56:54","23:20:54","23:44:54","24:08:54","24:32:54","24:56:54","25:20:54","25:44:54"],"__typename":"RouteHeadway"}],"feed_version":{"id":283119,"fetched_at":"2022-09-01T13:00:48.827458Z","__typename":"FeedVersion"}},"id":8359979},{"type":"Feature","geometry":{"type":"MultiLineString","coordinates":[[[-79.279592,43.711674],[-79.279692,43.71151],[-79.27978,43.710958],[-79.280137,43.710861],[-79.280503,43.710835],[-79.280713,43.711378],[-79.280991,43.712038],[-79.279767,43.712337],[-79.278943,43.712516],[-79.278751,43.712569],[-79.277574,43.712824],[-79.276546,43.713037],[-79.274395,43.713528],[-79.273927,43.713625],[-79.272203,43.713912],[-79.271618,43.714047],[-79.271105,43.714151],[-79.268926,43.714707],[-79.265704,43.715511],[-79.264703,43.715779],[-79.263677,43.715992],[-79.259908,43.71684],[-79.25931,43.717973],[-79.258904,43.718539],[-79.258745,43.718782],[-79.257073,43.720857],[-79.255616,43.722708],[-79.25484,43.723661],[-79.254574,43.724038],[-79.254183,43.724497],[-79.253949,43.72482],[-79.25382,43.72509],[-79.253699,43.72527],[-79.253587,43.725522],[-79.253373,43.725887],[-79.252618,43.727383],[-79.252461,43.727787],[-79.251759,43.729289],[-79.251591,43.729595],[-79.251251,43.730143],[-79.250743,43.730781],[-79.249961,43.731698],[-79.249349,43.732443],[-79.248645,43.733342],[-79.248325,43.733791],[-79.247372,43.735166],[-79.246152,43.73709],[-79.246087,43.737296],[-79.246001,43.737496],[-79.245584,43.738379],[-79.245497,43.738932],[-79.245522,43.739602],[-79.245516,43.739703],[-79.245528,43.740032],[-79.245524,43.740474],[-79.245417,43.741465],[-79.245357,43.741948],[-79.245304,43.742267],[-79.245049,43.743223],[-79.244891,43.743696],[-79.244747,43.744348],[-79.244708,43.744781],[-79.244667,43.745007],[-79.244589,43.745768],[-79.244546,43.74636],[-79.244554,43.746777],[-79.244576,43.747195],[-79.244536,43.747808],[-79.24451,43.748561],[-79.24447,43.749104],[-79.244457,43.749535],[-79.244414,43.749967],[-79.244426,43.750396],[-79.244423,43.750837],[-79.244409,43.751231],[-79.244384,43.751627],[-79.244401,43.752081],[-79.244367,43.752712],[-79.244396,43.752837],[-79.24539,43.755259],[-79.24541,43.755541],[-79.24546,43.755792],[-79.245459,43.755987],[-79.245469,43.756169],[-79.245502,43.756459],[-79.245624,43.756864],[-79.245739,43.757171],[-79.245896,43.757549],[-79.246209,43.758378],[-79.246658,43.759612],[-79.247228,43.761026],[-79.247596,43.761972],[-79.248195,43.763468],[-79.248613,43.764585],[-79.248946,43.765414],[-79.250199,43.76863],[-79.250388,43.76908],[-79.25075,43.770044],[-79.25132,43.771594],[-79.251413,43.771927],[-79.251486,43.772134],[-79.251497,43.772385],[-79.251518,43.7725],[-79.251593,43.772855],[-79.251674,43.773126],[-79.25186,43.773642],[-79.252179,43.774455],[-79.252385,43.774945],[-79.252575,43.775431],[-79.25388,43.775197],[-79.255185,43.774947],[-79.256138,43.774912],[-79.256133,43.774769],[-79.256148,43.774728],[-79.256195,43.77469],[-79.256254,43.77467],[-79.25712,43.774442],[-79.25754,43.774365],[-79.258709,43.774106]],[[-79.256133,43.77477],[-79.256148,43.774728],[-79.256195,43.77469],[-79.256254,43.77467],[-79.25712,43.774442],[-79.25754,43.774365],[-79.258709,43.774106],[-79.25887,43.774153],[-79.258981,43.774284],[-79.258775,43.774365],[-79.258347,43.7745],[-79.258095,43.774552],[-79.257935,43.774595],[-79.257516,43.774678],[-79.257265,43.774743],[-79.256581,43.774879],[-79.256472,43.774897],[-79.256327,43.774908],[-79.255535,43.77493],[-79.255185,43.774947],[-79.25388,43.775197],[-79.252575,43.775431],[-79.252385,43.774945],[-79.252179,43.774455],[-79.25186,43.773642],[-79.251674,43.773126],[-79.251593,43.772855],[-79.251518,43.7725],[-79.251497,43.772385],[-79.251486,43.772134],[-79.251413,43.771927],[-79.25132,43.771594],[-79.25075,43.770044],[-79.250388,43.76908],[-79.250199,43.76863],[-79.248946,43.765414],[-79.248613,43.764585],[-79.248195,43.763468],[-79.247596,43.761972],[-79.247228,43.761026],[-79.246658,43.759612],[-79.246209,43.758378],[-79.245896,43.757549],[-79.245739,43.757171],[-79.245624,43.756864],[-79.245501,43.756454],[-79.245469,43.756169],[-79.245459,43.755987],[-79.24546,43.755792],[-79.24541,43.755541],[-79.24539,43.755259],[-79.244396,43.752837],[-79.244367,43.752712],[-79.244401,43.752081],[-79.244384,43.751627],[-79.244409,43.751231],[-79.244423,43.750837],[-79.244426,43.750396],[-79.244414,43.749967],[-79.244457,43.749535],[-79.24447,43.749104],[-79.24451,43.748561],[-79.244536,43.747808],[-79.244576,43.747195],[-79.244554,43.746777],[-79.244546,43.74636],[-79.244589,43.745768],[-79.244667,43.745007],[-79.244708,43.744781],[-79.244747,43.744348],[-79.244891,43.743696],[-79.245049,43.743223],[-79.245304,43.742267],[-79.245357,43.741948],[-79.245417,43.741465],[-79.245524,43.740474],[-79.245528,43.740032],[-79.245516,43.739703],[-79.245522,43.739602],[-79.245497,43.738932],[-79.245584,43.738379],[-79.246001,43.737496],[-79.246087,43.737296],[-79.246152,43.73709],[-79.247372,43.735166],[-79.248325,43.733791],[-79.248645,43.733342],[-79.249349,43.732443],[-79.249961,43.731698],[-79.250743,43.730781],[-79.251251,43.730143],[-79.251591,43.729595],[-79.251759,43.729289],[-79.252461,43.727787],[-79.252618,43.727383],[-79.253373,43.725887],[-79.253587,43.725522],[-79.253699,43.72527],[-79.25382,43.72509],[-79.253949,43.72482],[-79.254183,43.724497],[-79.254574,43.724038],[-79.25484,43.723661],[-79.255616,43.722708],[-79.257073,43.720857],[-79.258745,43.718782],[-79.258904,43.718539],[-79.25931,43.717973],[-79.259908,43.71684],[-79.263677,43.715992],[-79.264703,43.715779],[-79.265704,43.715511],[-79.268926,43.714707],[-79.271105,43.714151],[-79.271618,43.714047],[-79.272203,43.713912],[-79.273927,43.713625],[-79.274395,43.713528],[-79.276546,43.713037],[-79.277574,43.712824],[-79.278751,43.712569],[-79.2794,43.712617],[-79.279633,43.71267],[-79.279782,43.712668],[-79.279913,43.712601],[-79.280042,43.712465],[-79.280054,43.712287],[-79.279953,43.712105],[-79.27988,43.712049],[-79.279707,43.711951],[-79.279581,43.711848],[-79.279568,43.711767],[-79.279592,43.711674],[-79.279692,43.71151],[-79.27978,43.710958]],[[-79.256137,43.77476],[-79.256148,43.774728],[-79.256195,43.77469],[-79.256254,43.77467],[-79.25712,43.774442],[-79.25754,43.774365],[-79.258709,43.774106],[-79.25887,43.774153],[-79.258981,43.774284],[-79.258775,43.774365],[-79.258347,43.7745],[-79.258095,43.774552],[-79.257935,43.774595],[-79.257516,43.774678],[-79.257265,43.774743],[-79.256581,43.774879],[-79.256472,43.774897],[-79.256327,43.774908],[-79.255535,43.77493],[-79.255185,43.774947],[-79.25388,43.775197],[-79.252575,43.775431],[-79.252385,43.774945],[-79.252179,43.774455],[-79.25186,43.773642],[-79.251674,43.773126],[-79.251593,43.772855],[-79.251518,43.7725],[-79.251497,43.772385],[-79.251486,43.772134],[-79.251413,43.771927],[-79.25132,43.771594],[-79.25075,43.770044],[-79.250388,43.76908],[-79.250199,43.76863],[-79.248946,43.765414],[-79.248613,43.764585],[-79.248195,43.763468],[-79.247596,43.761972],[-79.247228,43.761026],[-79.246658,43.759612],[-79.246209,43.758378],[-79.245896,43.757549],[-79.245739,43.757171],[-79.245624,43.756864],[-79.245501,43.756454],[-79.245469,43.756169],[-79.245459,43.755987],[-79.24546,43.755792],[-79.24541,43.755541],[-79.24539,43.755259],[-79.244396,43.752837],[-79.244367,43.752712],[-79.244401,43.752081],[-79.244384,43.751627],[-79.244409,43.751231],[-79.244423,43.750837],[-79.244426,43.750396],[-79.244414,43.749967],[-79.244457,43.749535],[-79.24447,43.749104],[-79.24451,43.748561],[-79.244536,43.747808],[-79.244576,43.747195],[-79.244554,43.746777],[-79.244546,43.74636],[-79.244589,43.745768],[-79.244667,43.745007],[-79.244708,43.744781],[-79.244747,43.744348],[-79.244891,43.743696],[-79.245049,43.743223],[-79.245304,43.742267],[-79.245357,43.741948],[-79.245417,43.741465],[-79.245524,43.740474],[-79.245528,43.740032],[-79.245516,43.739703],[-79.245522,43.739602],[-79.245497,43.738932],[-79.245584,43.738379],[-79.246001,43.737496],[-79.246087,43.737296],[-79.246152,43.73709],[-79.247372,43.735166],[-79.248325,43.733791],[-79.248645,43.733342],[-79.249349,43.732443],[-79.249961,43.731698],[-79.250743,43.730781],[-79.251251,43.730143],[-79.251591,43.729595],[-79.251759,43.729289],[-79.252461,43.727787],[-79.252618,43.727383],[-79.253373,43.725887],[-79.253587,43.725522],[-79.253699,43.72527],[-79.25382,43.72509],[-79.253949,43.72482],[-79.254183,43.724497],[-79.254574,43.724038],[-79.25484,43.723661],[-79.255616,43.722708],[-79.257073,43.720857],[-79.258745,43.718782],[-79.258904,43.718539],[-79.25931,43.717973],[-79.259908,43.71684],[-79.263677,43.715992],[-79.264703,43.715779],[-79.265704,43.715511],[-79.268926,43.714707],[-79.271105,43.714151],[-79.271618,43.714047],[-79.272203,43.713912],[-79.273927,43.713625],[-79.274395,43.713528],[-79.276546,43.713037],[-79.277574,43.712824],[-79.278751,43.712569],[-79.278943,43.712516],[-79.279767,43.712337],[-79.280991,43.712038],[-79.280713,43.711378],[-79.280311,43.710345],[-79.279516,43.70842],[-79.279292,43.707881],[-79.278903,43.707009],[-79.277496,43.703664],[-79.277286,43.703088],[-79.276981,43.702389],[-79.276445,43.701122],[-79.276075,43.700195],[-79.275788,43.699533],[-79.275668,43.699218],[-79.275202,43.69814],[-79.274823,43.69717],[-79.273904,43.694955],[-79.27365,43.694365],[-79.275459,43.693992],[-79.276749,43.693749],[-79.277278,43.693638]]]},"properties":{"id":8360007,"onestop_id":"r-dpz8u-16","feed_onestop_id":"f-dpz8-ttc","feed_version_sha1":"16d9658ff57ec6534540fee2b47383f7a9d423d0","route_id":66754,"route_color":"FF0000","route_desc":"","route_long_name":"McCOWAN","route_short_name":16,"route_type":3,"route_url":"","alerts":null,"route_stops":[{"stop":{"id":177679444,"stop_id":"425","stop_name":"3450 Danforth Ave","geometry":{"type":"Point","coordinates":[-79.275031,43.694178]},"__typename":"Stop"},"__typename":"RouteStop"},{"stop":{"id":177679534,"stop_id":"569","stop_name":"McCowan Rd at Town Centre Crt","geometry":{"type":"Point","coordinates":[-79.252588,43.774794]},"__typename":"Stop"},"__typename":"RouteStop"},{"stop":{"id":177679714,"stop_id":"811","stop_name":"St Clair Ave East at Elfreda Blvd","geometry":{"type":"Point","coordinates":[-79.273123,43.713659]},"__typename":"Stop"},"__typename":"RouteStop"},{"stop":{"id":177679761,"stop_id":"873","stop_name":"Warden Ave at Danforth Rd South Side","geometry":{"type":"Point","coordinates":[-79.274634,43.696469]},"__typename":"Stop"},"__typename":"RouteStop"},{"stop":{"id":177679851,"stop_id":"994","stop_name":"McCowan Rd at Meldazy Dr (North)","geometry":{"type":"Point","coordinates":[-79.248343,43.763591]},"__typename":"Stop"},"__typename":"RouteStop"},{"stop":{"id":177680055,"stop_id":"1234","stop_name":"1290 Danforth Rd","geometry":{"type":"Point","coordinates":[-79.245627,43.740746]},"__typename":"Stop"},"__typename":"RouteStop"},{"stop":{"id":177680145,"stop_id":"1339","stop_name":"McCowan Rd at Brimorton Dr","geometry":{"type":"Point","coordinates":[-79.249121,43.765576]},"__typename":"Stop"},"__typename":"RouteStop"},{"stop":{"id":177680421,"stop_id":"1662","stop_name":"McCowan Rd at St Andrews Rd","geometry":{"type":"Point","coordinates":[-79.246706,43.760033]},"__typename":"Stop"},"__typename":"RouteStop"},{"stop":{"id":177680594,"stop_id":"1870","stop_name":"Opposite 689 Warden Ave","geometry":{"type":"Point","coordinates":[-79.2792,43.707399]},"__typename":"Stop"},"__typename":"RouteStop"},{"stop":{"id":177680672,"stop_id":"1975","stop_name":"McCowan Rd at Meldazy Dr (South)","geometry":{"type":"Point","coordinates":[-79.247759,43.762072]},"__typename":"Stop"},"__typename":"RouteStop"},{"stop":{"id":177680710,"stop_id":"2024","stop_name":"Danforth Rd at Wetherby Dr","geometry":{"type":"Point","coordinates":[-79.245634,43.739556]},"__typename":"Stop"},"__typename":"RouteStop"},{"stop":{"id":177680932,"stop_id":"2293","stop_name":"McCowan Rd at Hollyhedge Dr (North) South Side","geometry":{"type":"Point","coordinates":[-79.244715,43.753308]},"__typename":"Stop"},"__typename":"RouteStop"},{"stop":{"id":177680965,"stop_id":"2339","stop_name":"Danforth Rd at Glenshephard Dr East West Side","geometry":{"type":"Point","coordinates":[-79.250118,43.731729]},"__typename":"Stop"},"__typename":"RouteStop"},{"stop":{"id":177681127,"stop_id":"2533","stop_name":"Danforth Rd at St Clair Ave East","geometry":{"type":"Point","coordinates":[-79.25993,43.717008]},"__typename":"Stop"},"__typename":"RouteStop"},{"stop":{"id":177681162,"stop_id":"2573","stop_name":"Danforth Rd at Trudelle St","geometry":{"type":"Point","coordinates":[-79.245412,43.739516]},"__typename":"Stop"},"__typename":"RouteStop"},{"stop":{"id":177681211,"stop_id":"2630","stop_name":"Warden Ave at Cataraqui Cres","geometry":{"type":"Point","coordinates":[-79.277192,43.70247]},"__typename":"Stop"},"__typename":"RouteStop"},{"stop":{"id":177681454,"stop_id":"2925","stop_name":"Warden Ave at Firvalley Crt","geometry":{"type":"Point","coordinates":[-79.277715,43.703737]},"__typename":"Stop"},"__typename":"RouteStop"},{"stop":{"id":177681553,"stop_id":"3040","stop_name":"Danforth Rd at Neston Ave West Side","geometry":{"type":"Point","coordinates":[-79.248928,43.733175]},"__typename":"Stop"},"__typename":"RouteStop"},{"stop":{"id":177681833,"stop_id":"3367","stop_name":"McCowan Rd at Lawrence Ave East Scarborough General Hospital","geometry":{"type":"Point","coordinates":[-79.245257,43.755237]},"__typename":"Stop"},"__typename":"RouteStop"},{"stop":{"id":177682042,"stop_id":"3627","stop_name":"Danforth Rd at Wolfe Ave","geometry":{"type":"Point","coordinates":[-79.25269,43.727577]},"__typename":"Stop"},"__typename":"RouteStop"},{"stop":{"id":177682137,"stop_id":"3740","stop_name":"St Clair Ave East at Marsh Rd","geometry":{"type":"Point","coordinates":[-79.264399,43.715953]},"__typename":"Stop"},"__typename":"RouteStop"},{"stop":{"id":177682231,"stop_id":"3860","stop_name":"Danforth Rd at Tyne Crt","geometry":{"type":"Point","coordinates":[-79.248642,43.733206]},"__typename":"Stop"},"__typename":"RouteStop"},{"stop":{"id":177682262,"stop_id":"3899","stop_name":"St Clair Ave East at Cotton Ave","geometry":{"type":"Point","coordinates":[-79.263794,43.715853]},"__typename":"Stop"},"__typename":"RouteStop"},{"stop":{"id":177682405,"stop_id":"4081","stop_name":"Danforth Rd at Magnolia Ave","geometry":{"type":"Point","coordinates":[-79.255705,43.722467]},"__typename":"Stop"},"__typename":"RouteStop"},{"stop":{"id":177682732,"stop_id":"4485","stop_name":"McCowan Rd at Huronia Gate","geometry":{"type":"Point","coordinates":[-79.249994,43.768414]},"__typename":"Stop"},"__typename":"RouteStop"},{"stop":{"id":177682750,"stop_id":"4507","stop_name":"Danforth Rd at Glenshephard Dr East East Side","geometry":{"type":"Point","coordinates":[-79.249776,43.731817]},"__typename":"Stop"},"__typename":"RouteStop"},{"stop":{"id":177682797,"stop_id":"4558","stop_name":"St Clair Ave East at Birchmount Rd West Side","geometry":{"type":"Point","coordinates":[-79.271838,43.714145]},"__typename":"Stop"},"__typename":"RouteStop"},{"stop":{"id":177682842,"stop_id":"4611","stop_name":"McCowan Rd at Ellesmere Rd South Side","geometry":{"type":"Point","coordinates":[-79.251482,43.77154]},"__typename":"Stop"},"__typename":"RouteStop"},{"stop":{"id":177682904,"stop_id":"4691","stop_name":"Danforth Rd at Brimley Rd West Side","geometry":{"type":"Point","coordinates":[-79.247684,43.734996]},"__typename":"Stop"},"__typename":"RouteStop"},{"stop":{"id":177683028,"stop_id":"4853","stop_name":"Danforth Rd at Horton Blvd","geometry":{"type":"Point","coordinates":[-79.247026,43.73601]},"__typename":"Stop"},"__typename":"RouteStop"},{"stop":{"id":177683076,"stop_id":"4907","stop_name":"Danforth Rd at St Clair Ave East North Side","geometry":{"type":"Point","coordinates":[-79.25946,43.717462]},"__typename":"Stop"},"__typename":"RouteStop"},{"stop":{"id":177683336,"stop_id":"5216","stop_name":"McCowan Rd at Benleigh Dr","geometry":{"type":"Point","coordinates":[-79.245956,43.758218]},"__typename":"Stop"},"__typename":"RouteStop"},{"stop":{"id":177683337,"stop_id":"5218","stop_name":"Danforth Rd at Linden Ave","geometry":{"type":"Point","coordinates":[-79.257054,43.721087]},"__typename":"Stop"},"__typename":"RouteStop"},{"stop":{"id":177683430,"stop_id":"5335","stop_name":"Danforth Rd at Seminole Ave","geometry":{"type":"Point","coordinates":[-79.244648,43.747921]},"__typename":"Stop"},"__typename":"RouteStop"},{"stop":{"id":177683475,"stop_id":"5398","stop_name":"Danforth Rd at Eglinton Ave East","geometry":{"type":"Point","coordinates":[-79.24626,43.737276]},"__typename":"Stop"},"__typename":"RouteStop"},{"stop":{"id":177683665,"stop_id":"5626","stop_name":"St Clair Ave East at Santamonica Blvd","geometry":{"type":"Point","coordinates":[-79.276424,43.713222]},"__typename":"Stop"},"__typename":"RouteStop"},{"stop":{"id":177683674,"stop_id":"5636","stop_name":"McCowan Rd at Bellechasse St North Side","geometry":{"type":"Point","coordinates":[-79.247246,43.761349]},"__typename":"Stop"},"__typename":"RouteStop"},{"stop":{"id":177683715,"stop_id":"5689","stop_name":"Danforth Rd at Linden Ave","geometry":{"type":"Point","coordinates":[-79.257181,43.720579]},"__typename":"Stop"},"__typename":"RouteStop"},{"stop":{"id":177683759,"stop_id":"5741","stop_name":"McCowan Rd at Hurley Cres South Side","geometry":{"type":"Point","coordinates":[-79.250339,43.768651]},"__typename":"Stop"},"__typename":"RouteStop"},{"stop":{"id":177683866,"stop_id":"5872","stop_name":"St Clair Ave East at North Woodrow Blvd","geometry":{"type":"Point","coordinates":[-79.266449,43.715452]},"__typename":"Stop"},"__typename":"RouteStop"},{"stop":{"id":177683919,"stop_id":"5932","stop_name":"St Clair Ave East at Birchmount Rd East Side","geometry":{"type":"Point","coordinates":[-79.270532,43.714182]},"__typename":"Stop"},"__typename":"RouteStop"},{"stop":{"id":177684274,"stop_id":"6356","stop_name":"Danforth Rd at Barrymore Rd","geometry":{"type":"Point","coordinates":[-79.244527,43.750508]},"__typename":"Stop"},"__typename":"RouteStop"},{"stop":{"id":177684293,"stop_id":"6383","stop_name":"McCowan Rd at Hollyhedge Dr (North)","geometry":{"type":"Point","coordinates":[-79.244573,43.753466]},"__typename":"Stop"},"__typename":"RouteStop"},{"stop":{"id":177684394,"stop_id":"6502","stop_name":"Danforth Rd at Savarin St","geometry":{"type":"Point","coordinates":[-79.245123,43.743307]},"__typename":"Stop"},"__typename":"RouteStop"},{"stop":{"id":177684555,"stop_id":"6699","stop_name":"Danforth Rd at Eglinton Ave East","geometry":{"type":"Point","coordinates":[-79.246243,43.73687]},"__typename":"Stop"},"__typename":"RouteStop"},{"stop":{"id":177684560,"stop_id":"6704","stop_name":"682 Warden Ave","geometry":{"type":"Point","coordinates":[-79.278599,43.705852]},"__typename":"Stop"},"__typename":"RouteStop"},{"stop":{"id":177684612,"stop_id":"6765","stop_name":"Danforth Rd at Glenshephard Dr (West)","geometry":{"type":"Point","coordinates":[-79.250791,43.730593]},"__typename":"Stop"},"__typename":"RouteStop"},{"stop":{"id":177684625,"stop_id":"6779","stop_name":"Danforth Rd at Midland Ave","geometry":{"type":"Point","coordinates":[-79.253783,43.725436]},"__typename":"Stop"},"__typename":"RouteStop"},{"stop":{"id":177684910,"stop_id":"7129","stop_name":"McCowan Rd at Meldazy Dr (North) North Side","geometry":{"type":"Point","coordinates":[-79.248106,43.763574]},"__typename":"Stop"},"__typename":"RouteStop"},{"stop":{"id":177685119,"stop_id":"7377","stop_name":"Warden Ave at Danforth Ave","geometry":{"type":"Point","coordinates":[-79.273869,43.694553]},"__typename":"Stop"},"__typename":"RouteStop"},{"stop":{"id":177685144,"stop_id":"7405","stop_name":"St Clair Ave East at Santamonica Blvd","geometry":{"type":"Point","coordinates":[-79.276699,43.712912]},"__typename":"Stop"},"__typename":"RouteStop"},{"stop":{"id":177685269,"stop_id":"7557","stop_name":"McCowan Rd at St Andrews Rd","geometry":{"type":"Point","coordinates":[-79.247004,43.760142]},"__typename":"Stop"},"__typename":"RouteStop"},{"stop":{"id":177685421,"stop_id":"7738","stop_name":"Danforth Rd at Hart Ave","geometry":{"type":"Point","coordinates":[-79.258628,43.718747]},"__typename":"Stop"},"__typename":"RouteStop"},{"stop":{"id":177685619,"stop_id":"7968","stop_name":"McCowan Rd at Lawrence Ave East Scarborough General Hospital","geometry":{"type":"Point","coordinates":[-79.245668,43.755742]},"__typename":"Stop"},"__typename":"RouteStop"},{"stop":{"id":177685629,"stop_id":"7980","stop_name":"McCowan Rd at Benleigh Dr","geometry":{"type":"Point","coordinates":[-79.246336,43.75845]},"__typename":"Stop"},"__typename":"RouteStop"},{"stop":{"id":177685895,"stop_id":"8299","stop_name":"Danforth Rd at Carslake Cres South","geometry":{"type":"Point","coordinates":[-79.244464,43.746255]},"__typename":"Stop"},"__typename":"RouteStop"},{"stop":{"id":177686032,"stop_id":"8462","stop_name":"Danforth Rd at Magnolia Ave","geometry":{"type":"Point","coordinates":[-79.255585,43.722968]},"__typename":"Stop"},"__typename":"RouteStop"},{"stop":{"id":177686045,"stop_id":"8477","stop_name":"St Clair Ave East at Kennedy Rd","geometry":{"type":"Point","coordinates":[-79.261083,43.716705]},"__typename":"Stop"},"__typename":"RouteStop"},{"stop":{"id":177686330,"stop_id":"8825","stop_name":"McCowan Rd at Brimorton Dr","geometry":{"type":"Point","coordinates":[-79.248748,43.765254]},"__typename":"Stop"},"__typename":"RouteStop"},{"stop":{"id":177686343,"stop_id":"8840","stop_name":"St Clair Ave East at North Woodrow Blvd","geometry":{"type":"Point","coordinates":[-79.266834,43.715113]},"__typename":"Stop"},"__typename":"RouteStop"},{"stop":{"id":177686508,"stop_id":"9040","stop_name":"Danforth Rd at Tansley Ave South Side","geometry":{"type":"Point","coordinates":[-79.244702,43.746116]},"__typename":"Stop"},"__typename":"RouteStop"},{"stop":{"id":177686699,"stop_id":"9272","stop_name":"Danforth Rd at Hollyhedge Dr South","geometry":{"type":"Point","coordinates":[-79.244317,43.75106]},"__typename":"Stop"},"__typename":"RouteStop"},{"stop":{"id":177686703,"stop_id":"9276","stop_name":"Triton Rd at McCowan Rd","geometry":{"type":"Point","coordinates":[-79.252967,43.775294]},"__typename":"Stop"},"__typename":"RouteStop"},{"stop":{"id":177686773,"stop_id":"9362","stop_name":"Danforth Rd at Gordonridge Pl East Side","geometry":{"type":"Point","coordinates":[-79.252323,43.727826]},"__typename":"Stop"},"__typename":"RouteStop"},{"stop":{"id":177686799,"stop_id":"9394","stop_name":"Warden Ave at St Clair Ave East South Side","geometry":{"type":"Point","coordinates":[-79.280905,43.711465]},"__typename":"Stop"},"__typename":"RouteStop"},{"stop":{"id":177686832,"stop_id":"9432","stop_name":"Danforth Rd at Midland Ave East Side","geometry":{"type":"Point","coordinates":[-79.253659,43.725151]},"__typename":"Stop"},"__typename":"RouteStop"},{"stop":{"id":177686892,"stop_id":"9505","stop_name":"McCowan Rd at Ellesmere Rd","geometry":{"type":"Point","coordinates":[-79.251202,43.771989]},"__typename":"Stop"},"__typename":"RouteStop"},{"stop":{"id":177687337,"stop_id":"10044","stop_name":"Warden Ave at Burn Hill Rd","geometry":{"type":"Point","coordinates":[-79.276248,43.700304]},"__typename":"Stop"},"__typename":"RouteStop"},{"stop":{"id":177687438,"stop_id":"10165","stop_name":"Warden Ave at St Clair Ave East","geometry":{"type":"Point","coordinates":[-79.280628,43.711551]},"__typename":"Stop"},"__typename":"RouteStop"},{"stop":{"id":177687458,"stop_id":"10187","stop_name":"Danforth Rd at Seminole Ave North Side","geometry":{"type":"Point","coordinates":[-79.244427,43.748003]},"__typename":"Stop"},"__typename":"RouteStop"},{"stop":{"id":177687586,"stop_id":"10348","stop_name":"Danforth Rd at Hart Ave","geometry":{"type":"Point","coordinates":[-79.25874,43.718938]},"__typename":"Stop"},"__typename":"RouteStop"},{"stop":{"id":177687683,"stop_id":"10485","stop_name":"Danforth Rd at Brimley Rd","geometry":{"type":"Point","coordinates":[-79.247559,43.734725]},"__typename":"Stop"},"__typename":"RouteStop"},{"stop":{"id":177687890,"stop_id":"14288","stop_name":"Scarborough Centre Station","geometry":{"type":"Point","coordinates":[-79.257944,43.774322]},"__typename":"Stop"},"__typename":"RouteStop"},{"stop":{"id":177687907,"stop_id":"14310","stop_name":"Warden Station","geometry":{"type":"Point","coordinates":[-79.279785,43.710998]},"__typename":"Stop"},"__typename":"RouteStop"},{"stop":{"id":177688225,"stop_id":"14800","stop_name":"Danforth Rd at Winter Ave","geometry":{"type":"Point","coordinates":[-79.251749,43.729586]},"__typename":"Stop"},"__typename":"RouteStop"}],"agency":{"id":135533,"agency_id":"1","agency_name":"TTC","onestop_id":"o-dpz8-ttc","__typename":"Agency"},"headways":[{"dow_category":1,"service_date":"2022-09-06","direction_id":1,"headway_secs":660,"departures":["05:16:41","05:35:41","05:46:41","05:56:41","06:07:41","06:18:41","06:29:41","06:40:41","06:51:41","07:02:41","07:13:41","07:24:41","07:35:41","07:46:41","07:57:41","08:08:41","08:19:41","08:30:41","08:41:41","08:53:41","09:06:41","09:19:41","09:32:41","09:45:41","09:58:41","10:11:41","10:24:41","10:37:41","10:50:41","11:03:41","11:16:41","11:29:41","11:42:41","11:55:41","12:08:41","12:21:41","12:34:41","12:47:41","13:00:41","13:13:41","13:26:41","13:39:41","13:52:41","14:05:41","14:18:41","14:31:41","14:44:41","14:57:41","15:10:41","15:23:41","15:36:41","15:49:41","16:02:41","16:13:41","16:21:41","16:30:41","16:37:41","16:43:41","16:52:41","17:01:41","17:10:41","17:19:41","17:28:41","17:37:41","17:46:41","17:55:41","18:04:41","18:13:41","18:22:41","18:31:41","18:40:41","18:51:41","19:03:41","19:15:41","19:27:41","19:39:41","19:51:41","20:03:41","20:15:41","20:27:41","20:39:41","20:51:41","21:03:41","21:15:41","21:27:41","21:39:41","21:51:41","22:03:41","22:15:41","22:27:41","22:39:41","22:55:50","23:12:50","23:29:50","23:46:50","24:03:50","24:20:50","24:37:50","24:54:50","25:11:50","25:24:50"],"__typename":"RouteHeadway"},{"dow_category":6,"service_date":"2022-09-10","direction_id":1,"headway_secs":900,"departures":["05:25:31","05:40:31","05:55:31","06:10:31","06:25:31","06:40:31","06:55:31","07:10:31","07:25:31","07:40:31","07:55:31","08:10:31","08:25:31","08:40:31","08:55:31","09:06:31","09:18:31","09:30:31","09:42:31","09:54:31","10:06:31","10:18:31","10:30:31","10:42:31","10:54:31","11:06:31","11:19:31","11:32:31","11:42:31","11:52:31","12:02:31","12:12:31","12:22:31","12:32:31","12:42:31","12:52:31","13:02:31","13:12:31","13:22:31","13:32:31","13:42:31","13:52:31","14:02:31","14:12:31","14:22:31","14:32:31","14:42:31","14:52:31","15:02:31","15:12:31","15:22:31","15:32:31","15:42:31","15:52:31","16:02:31","16:12:31","16:22:31","16:32:31","16:42:31","16:52:31","17:02:31","17:12:31","17:22:31","17:32:31","17:42:31","17:52:31","18:02:31","18:12:31","18:22:31","18:32:31","18:42:31","18:52:31","19:06:31","19:21:31","19:33:31","19:45:31","19:57:31","20:09:31","20:21:31","20:33:31","20:45:31","20:57:31","21:09:31","21:21:31","21:33:31","21:45:31","21:57:31","22:09:31","22:24:31","22:39:31","22:54:31","23:09:31","23:24:31","23:39:31","23:54:31","24:09:31","24:24:31","24:39:31","24:54:31","25:09:31","25:32:31"],"__typename":"RouteHeadway"},{"dow_category":7,"service_date":"2022-09-04","direction_id":1,"headway_secs":1020,"departures":["07:34:31","07:51:31","08:08:31","08:25:31","08:42:31","08:59:31","09:16:31","09:33:31","09:50:31","10:07:31","10:24:31","10:41:31","10:58:31","11:08:31","11:20:31","11:32:31","11:44:31","11:56:31","12:08:31","12:20:31","12:32:31","12:44:31","12:56:31","13:08:31","13:20:31","13:32:31","13:44:31","13:56:31","14:08:31","14:20:31","14:32:31","14:44:31","14:56:31","15:08:31","15:20:31","15:32:31","15:44:31","15:56:31","16:08:31","16:20:31","16:32:31","16:44:31","16:56:31","17:08:31","17:20:31","17:32:31","17:44:31","17:56:31","18:08:31","18:20:31","18:32:31","18:49:31","19:10:31","19:34:31","19:58:31","20:22:31","20:46:31","21:10:31","21:34:31","22:04:31","22:34:31","23:04:31","23:34:31","24:04:31","24:34:31","25:04:31","25:34:31"],"__typename":"RouteHeadway"},{"dow_category":6,"service_date":"2022-09-10","direction_id":0,"headway_secs":900,"departures":["05:46:27","06:01:27","06:16:27","06:31:27","06:46:27","07:01:27","07:16:27","07:31:27","07:46:27","08:01:27","08:16:27","08:31:27","08:46:27","09:00:11","09:12:55","09:24:55","09:36:55","09:48:55","10:00:55","10:12:55","10:24:55","10:36:55","10:48:55","11:00:55","11:12:55","11:22:55","11:32:55","11:42:55","11:52:55","12:02:55","12:12:55","12:22:55","12:32:55","12:42:55","12:52:55","13:02:55","13:12:55","13:22:55","13:32:55","13:42:55","13:52:55","14:02:55","14:12:55","14:22:55","14:32:55","14:42:55","14:52:55","15:02:55","15:12:55","15:22:55","15:32:55","15:42:55","15:52:55","16:02:55","16:12:55","16:22:55","16:32:55","16:42:55","16:52:55","17:02:55","17:12:55","17:22:55","17:32:55","17:42:55","17:52:55","18:02:55","18:12:55","18:22:55","18:33:55","18:45:55","18:56:27","19:08:27","19:20:27","19:32:27","19:44:27","19:56:27","20:08:27","20:20:27","20:32:27","20:44:27","20:56:27","21:08:27","21:20:27","21:32:27","21:46:27","22:01:27","22:16:27","22:31:27","22:46:27","23:01:27","23:16:27","23:31:27","23:46:27","24:01:27","24:16:27","24:31:27","24:46:27","25:01:27","25:16:27","25:31:27","25:54:27"],"__typename":"RouteHeadway"},{"dow_category":7,"service_date":"2022-09-04","direction_id":0,"headway_secs":1020,"departures":["08:00:11","08:17:11","08:34:11","08:51:11","09:08:11","09:25:11","09:42:11","09:59:11","10:16:11","10:33:11","10:50:11","11:02:11","11:14:11","11:26:11","11:38:11","11:50:11","12:02:11","12:14:11","12:26:11","12:38:11","12:50:11","13:02:11","13:14:11","13:26:11","13:38:11","13:50:11","14:02:11","14:14:11","14:26:11","14:38:11","14:50:11","15:02:11","15:14:11","15:26:11","15:38:11","15:50:11","16:02:11","16:14:11","16:26:11","16:38:11","16:50:11","17:02:11","17:14:11","17:26:11","17:38:11","17:50:11","18:02:11","18:14:11","18:26:11","18:44:11","19:08:11","19:31:27","19:55:27","20:19:27","20:43:27","21:07:27","21:31:27","22:01:27","22:31:27","23:01:27","23:31:27","24:01:27","24:31:27","25:01:27","25:31:27","26:01:27"],"__typename":"RouteHeadway"},{"dow_category":1,"service_date":"2022-09-06","direction_id":0,"headway_secs":660,"departures":["05:22:11","05:38:11","05:51:11","06:02:11","06:13:11","06:24:11","06:35:11","06:46:11","06:57:11","07:08:11","07:19:11","07:30:11","07:41:11","07:52:11","08:03:11","08:14:11","08:25:11","08:36:11","08:47:11","09:00:11","09:13:11","09:26:11","09:39:11","09:52:11","10:05:11","10:18:11","10:31:11","10:44:11","10:57:11","11:10:11","11:23:11","11:36:11","11:49:11","12:02:11","12:15:11","12:28:11","12:41:11","12:54:11","13:07:11","13:20:11","13:33:11","13:46:11","13:59:11","14:12:11","14:25:11","14:38:11","14:51:11","15:04:11","15:17:11","15:30:11","15:40:11","15:50:11","16:00:55","16:09:55","16:18:55","16:27:55","16:36:55","16:45:55","16:54:55","17:03:55","17:12:55","17:21:55","17:30:55","17:39:55","17:48:55","17:57:55","18:06:55","18:15:55","18:24:55","18:33:11","18:45:11","18:57:11","19:09:11","19:21:11","19:33:11","19:45:11","19:57:11","20:09:11","20:21:11","20:33:11","20:45:11","20:57:11","21:09:11","21:21:11","21:33:11","21:45:11","21:57:11","22:13:27","22:30:27","22:47:27","23:04:27","23:21:27","23:38:27","23:55:27","24:12:27","24:29:27","24:46:27","25:03:27","25:20:27","25:37:27","25:47:27"],"__typename":"RouteHeadway"}],"feed_version":{"id":283119,"fetched_at":"2022-09-01T13:00:48.827458Z","__typename":"FeedVersion"}},"id":8360007},{"type":"Feature","geometry":{"type":"MultiLineString","coordinates":[[[-79.323213,43.684124],[-79.323205,43.684242],[-79.323112,43.68434],[-79.323961,43.684161],[-79.322723,43.681214],[-79.322446,43.680507],[-79.322134,43.679818],[-79.321828,43.679102],[-79.320788,43.676526],[-79.320288,43.67533],[-79.32019,43.675058],[-79.319297,43.672901],[-79.318373,43.670726],[-79.317564,43.668695],[-79.316904,43.667154],[-79.316589,43.666353],[-79.314837,43.666733],[-79.31258,43.667237],[-79.312463,43.667498],[-79.311864,43.668685],[-79.311631,43.669103],[-79.310359,43.671495],[-79.31019,43.671801],[-79.310017,43.672012],[-79.30986,43.672193],[-79.309073,43.672862],[-79.307913,43.673921],[-79.30727,43.674467],[-79.306541,43.675128],[-79.305595,43.67595],[-79.305162,43.676307],[-79.304873,43.676518],[-79.304709,43.676599],[-79.304502,43.676729],[-79.304075,43.676934],[-79.301169,43.678119],[-79.300989,43.678204],[-79.300462,43.6784],[-79.298916,43.678685],[-79.298011,43.678879],[-79.296299,43.67929],[-79.295858,43.679378],[-79.29451,43.67971],[-79.293031,43.680044],[-79.292579,43.680103],[-79.291848,43.68014],[-79.290681,43.680243],[-79.289936,43.680278],[-79.28919,43.680357],[-79.288397,43.680388],[-79.287075,43.680532],[-79.285961,43.680627],[-79.284047,43.680804],[-79.284366,43.681589],[-79.284428,43.681608],[-79.284471,43.681612],[-79.284531,43.681605],[-79.285083,43.681479]],[[-79.284531,43.681605],[-79.285083,43.681479],[-79.285352,43.681404],[-79.285054,43.680712],[-79.287075,43.680532],[-79.288397,43.680388],[-79.28919,43.680357],[-79.289937,43.680277],[-79.290681,43.680243],[-79.291848,43.68014],[-79.292579,43.680103],[-79.293031,43.680044],[-79.29451,43.67971],[-79.295858,43.679378],[-79.296299,43.67929],[-79.298011,43.678878],[-79.298916,43.678685],[-79.300462,43.6784],[-79.300989,43.678204],[-79.301169,43.678119],[-79.304075,43.676934],[-79.304502,43.676729],[-79.304709,43.676599],[-79.304873,43.676518],[-79.305162,43.676307],[-79.305595,43.67595],[-79.306541,43.675128],[-79.30727,43.674467],[-79.307913,43.673921],[-79.309073,43.672862],[-79.30986,43.672193],[-79.310115,43.671895],[-79.31019,43.671801],[-79.310359,43.671495],[-79.31163,43.669103],[-79.311864,43.668685],[-79.312462,43.667498],[-79.31258,43.667237],[-79.312621,43.666707],[-79.312682,43.666552],[-79.312753,43.666442],[-79.312863,43.666349],[-79.312967,43.666276],[-79.313077,43.666216],[-79.313214,43.666161],[-79.314937,43.665773],[-79.315451,43.665666],[-79.316202,43.665486],[-79.316589,43.666353],[-79.316904,43.667154],[-79.317564,43.668695],[-79.318373,43.670726],[-79.319297,43.672901],[-79.32019,43.675058],[-79.320288,43.67533],[-79.320788,43.676526],[-79.321828,43.679102],[-79.322134,43.679818],[-79.322446,43.680507],[-79.322723,43.681214],[-79.323961,43.684161],[-79.323112,43.68434],[-79.322985,43.684307],[-79.32291,43.684265],[-79.322813,43.68406],[-79.322813,43.68399],[-79.322838,43.68394],[-79.322907,43.683894],[-79.322995,43.683876],[-79.323108,43.68392],[-79.323213,43.684124]]]},"properties":{"id":8360025,"onestop_id":"r-dpz87-22","feed_onestop_id":"f-dpz8-ttc","feed_version_sha1":"16d9658ff57ec6534540fee2b47383f7a9d423d0","route_id":66771,"route_color":"FF0000","route_desc":"","route_long_name":"COXWELL","route_short_name":22,"route_type":3,"route_url":"","alerts":null,"route_stops":[{"stop":{"id":177679374,"stop_id":"308","stop_name":"Eastern Ave at Queen St East South Side","geometry":{"type":"Point","coordinates":[-79.312738,43.666788]},"__typename":"Stop"},"__typename":"RouteStop"},{"stop":{"id":177679487,"stop_id":"489","stop_name":"Queen St East at Kingston Rd","geometry":{"type":"Point","coordinates":[-79.312948,43.667029]},"__typename":"Stop"},"__typename":"RouteStop"},{"stop":{"id":177679488,"stop_id":"490","stop_name":"Queen St East at Kingston Rd","geometry":{"type":"Point","coordinates":[-79.31289,43.667119]},"__typename":"Stop"},"__typename":"RouteStop"},{"stop":{"id":177679703,"stop_id":"797","stop_name":"Kingston Rd at Glen Manor Dr","geometry":{"type":"Point","coordinates":[-79.294644,43.679631]},"__typename":"Stop"},"__typename":"RouteStop"},{"stop":{"id":177679967,"stop_id":"1129","stop_name":"Coxwell Ave at Dundas St East","geometry":{"type":"Point","coordinates":[-79.317395,43.668538]},"__typename":"Stop"},"__typename":"RouteStop"},{"stop":{"id":177680271,"stop_id":"1480","stop_name":"Bingham Loop","geometry":{"type":"Point","coordinates":[-79.285,43.68146]},"__typename":"Stop"},"__typename":"RouteStop"},{"stop":{"id":177680544,"stop_id":"1810","stop_name":"Kingston Rd at Southwood Dr","geometry":{"type":"Point","coordinates":[-79.298363,43.678753]},"__typename":"Stop"},"__typename":"RouteStop"},{"stop":{"id":177681314,"stop_id":"2754","stop_name":"Coxwell Ave at Queen St East","geometry":{"type":"Point","coordinates":[-79.316311,43.665944]},"__typename":"Stop"},"__typename":"RouteStop"},{"stop":{"id":177681408,"stop_id":"2863","stop_name":"Bingham Ave at Kingston Rd","geometry":{"type":"Point","coordinates":[-79.285215,43.680832]},"__typename":"Stop"},"__typename":"RouteStop"},{"stop":{"id":177681745,"stop_id":"3260","stop_name":"Coxwell Ave at Earl Haig Ave North Side","geometry":{"type":"Point","coordinates":[-79.322718,43.681455]},"__typename":"Stop"},"__typename":"RouteStop"},{"stop":{"id":177681764,"stop_id":"3281","stop_name":"Kingston Rd at Dundas St East","geometry":{"type":"Point","coordinates":[-79.311229,43.670087]},"__typename":"Stop"},"__typename":"RouteStop"},{"stop":{"id":177681780,"stop_id":"3301","stop_name":"Kingston Rd at Beech Ave","geometry":{"type":"Point","coordinates":[-79.29052,43.680314]},"__typename":"Stop"},"__typename":"RouteStop"},{"stop":{"id":177682357,"stop_id":"4019","stop_name":"Kingston Rd at Scarborough Rd","geometry":{"type":"Point","coordinates":[-79.287193,43.680468]},"__typename":"Stop"},"__typename":"RouteStop"},{"stop":{"id":177682439,"stop_id":"4119","stop_name":"Kingston Rd at Lee Ave","geometry":{"type":"Point","coordinates":[-79.300903,43.678324]},"__typename":"Stop"},"__typename":"RouteStop"},{"stop":{"id":177682545,"stop_id":"4247","stop_name":"Coxwell Ave at Hanson St South Side","geometry":{"type":"Point","coordinates":[-79.32213,43.679563]},"__typename":"Stop"},"__typename":"RouteStop"},{"stop":{"id":177682812,"stop_id":"4577","stop_name":"Kingston Rd at Queen St East","geometry":{"type":"Point","coordinates":[-79.312277,43.667985]},"__typename":"Stop"},"__typename":"RouteStop"},{"stop":{"id":177682868,"stop_id":"4644","stop_name":"Coxwell Ave at Robbins Ave","geometry":{"type":"Point","coordinates":[-79.318125,43.669844]},"__typename":"Stop"},"__typename":"RouteStop"},{"stop":{"id":177683034,"stop_id":"4859","stop_name":"Kingston Rd at Elmer Ave","geometry":{"type":"Point","coordinates":[-79.306008,43.675537]},"__typename":"Stop"},"__typename":"RouteStop"},{"stop":{"id":177683036,"stop_id":"4861","stop_name":"Kingston Rd at Dixon Ave","geometry":{"type":"Point","coordinates":[-79.311175,43.669775]},"__typename":"Stop"},"__typename":"RouteStop"},{"stop":{"id":177683617,"stop_id":"5576","stop_name":"Coxwell Ave at Eastwood Rd","geometry":{"type":"Point","coordinates":[-79.319104,43.672707]},"__typename":"Stop"},"__typename":"RouteStop"},{"stop":{"id":177683712,"stop_id":"5686","stop_name":"Kingston Rd at Bingham Ave","geometry":{"type":"Point","coordinates":[-79.285096,43.680647]},"__typename":"Stop"},"__typename":"RouteStop"},{"stop":{"id":177683867,"stop_id":"5873","stop_name":"Coxwell Ave at Dundas St East","geometry":{"type":"Point","coordinates":[-79.317745,43.668972]},"__typename":"Stop"},"__typename":"RouteStop"},{"stop":{"id":177683921,"stop_id":"5934","stop_name":"Coxwell Ave at Robbins Ave","geometry":{"type":"Point","coordinates":[-79.317896,43.669777]},"__typename":"Stop"},"__typename":"RouteStop"},{"stop":{"id":177683999,"stop_id":"6027","stop_name":"Kingston Rd at Columbine Ave","geometry":{"type":"Point","coordinates":[-79.310365,43.671675]},"__typename":"Stop"},"__typename":"RouteStop"},{"stop":{"id":177684023,"stop_id":"6052","stop_name":"Coxwell Ave at Danforth Ave","geometry":{"type":"Point","coordinates":[-79.32377,43.683532]},"__typename":"Stop"},"__typename":"RouteStop"},{"stop":{"id":177684053,"stop_id":"6088","stop_name":"Coxwell Ave at Earl Haig Ave","geometry":{"type":"Point","coordinates":[-79.32284,43.681321]},"__typename":"Stop"},"__typename":"RouteStop"},{"stop":{"id":177684217,"stop_id":"6290","stop_name":"Kingston Rd at Brookside Dr","geometry":{"type":"Point","coordinates":[-79.303837,43.677113]},"__typename":"Stop"},"__typename":"RouteStop"},{"stop":{"id":177685104,"stop_id":"7359","stop_name":"Coxwell Ave at Casci Ave","geometry":{"type":"Point","coordinates":[-79.320962,43.677303]},"__typename":"Stop"},"__typename":"RouteStop"},{"stop":{"id":177685469,"stop_id":"7795","stop_name":"Kingston Rd at Lee Ave","geometry":{"type":"Point","coordinates":[-79.301308,43.678012]},"__typename":"Stop"},"__typename":"RouteStop"},{"stop":{"id":177685610,"stop_id":"7957","stop_name":"Kingston Rd at Beech Ave","geometry":{"type":"Point","coordinates":[-79.290892,43.680164]},"__typename":"Stop"},"__typename":"RouteStop"},{"stop":{"id":177685830,"stop_id":"8219","stop_name":"Kingston Rd at Rainsford Rd","geometry":{"type":"Point","coordinates":[-79.309127,43.672756]},"__typename":"Stop"},"__typename":"RouteStop"},{"stop":{"id":177685855,"stop_id":"8251","stop_name":"Coxwell Ave at Hanson St","geometry":{"type":"Point","coordinates":[-79.321983,43.679672]},"__typename":"Stop"},"__typename":"RouteStop"},{"stop":{"id":177686148,"stop_id":"8597","stop_name":"Kingston Rd at Woodbine Ave","geometry":{"type":"Point","coordinates":[-79.308088,43.673673]},"__typename":"Stop"},"__typename":"RouteStop"},{"stop":{"id":177686261,"stop_id":"8742","stop_name":"Coxwell Ave at Queen St East","geometry":{"type":"Point","coordinates":[-79.316748,43.666692]},"__typename":"Stop"},"__typename":"RouteStop"},{"stop":{"id":177686459,"stop_id":"8980","stop_name":"Coxwell Ave at Upper Gerrard St East","geometry":{"type":"Point","coordinates":[-79.320091,43.675096]},"__typename":"Stop"},"__typename":"RouteStop"},{"stop":{"id":177686501,"stop_id":"9032","stop_name":"Kingston Rd at Elmer Ave","geometry":{"type":"Point","coordinates":[-79.305884,43.67582]},"__typename":"Stop"},"__typename":"RouteStop"},{"stop":{"id":177686518,"stop_id":"9054","stop_name":"Kingston Rd at Scarborough Rd","geometry":{"type":"Point","coordinates":[-79.287061,43.680614]},"__typename":"Stop"},"__typename":"RouteStop"},{"stop":{"id":177686724,"stop_id":"9300","stop_name":"Kingston Rd at Waverley Rd","geometry":{"type":"Point","coordinates":[-79.304185,43.676824]},"__typename":"Stop"},"__typename":"RouteStop"},{"stop":{"id":177686839,"stop_id":"9441","stop_name":"Kingston Rd at Main St","geometry":{"type":"Point","coordinates":[-79.297762,43.679023]},"__typename":"Stop"},"__typename":"RouteStop"},{"stop":{"id":177687018,"stop_id":"9658","stop_name":"Coxwell Ave at Danforth Ave","geometry":{"type":"Point","coordinates":[-79.323439,43.683205]},"__typename":"Stop"},"__typename":"RouteStop"},{"stop":{"id":177687452,"stop_id":"10181","stop_name":"Coxwell Ave at Fairford Ave","geometry":{"type":"Point","coordinates":[-79.320451,43.675524]},"__typename":"Stop"},"__typename":"RouteStop"},{"stop":{"id":177687673,"stop_id":"10468","stop_name":"Coxwell Ave at Casci Ave","geometry":{"type":"Point","coordinates":[-79.321238,43.677393]},"__typename":"Stop"},"__typename":"RouteStop"},{"stop":{"id":177687784,"stop_id":"14166","stop_name":"Coxwell Station","geometry":{"type":"Point","coordinates":[-79.323123,43.684135]},"__typename":"Stop"},"__typename":"RouteStop"},{"stop":{"id":177688248,"stop_id":"14938","stop_name":"Coxwell Ave at Lower Gerrard St East South Side","geometry":{"type":"Point","coordinates":[-79.319196,43.672485]},"__typename":"Stop"},"__typename":"RouteStop"},{"stop":{"id":177688316,"stop_id":"15140","stop_name":"Kingston Rd at Glen Manor Dr","geometry":{"type":"Point","coordinates":[-79.293952,43.679904]},"__typename":"Stop"},"__typename":"RouteStop"},{"stop":{"id":177688317,"stop_id":"15141","stop_name":"Kingston Rd at Woodbine Ave","geometry":{"type":"Point","coordinates":[-79.307787,43.674156]},"__typename":"Stop"},"__typename":"RouteStop"}],"agency":{"id":135533,"agency_id":"1","agency_name":"TTC","onestop_id":"o-dpz8-ttc","__typename":"Agency"},"headways":[{"dow_category":1,"service_date":"2022-09-05","direction_id":1,"headway_secs":600,"departures":["06:12:00","06:27:00","06:42:00","06:57:00","07:12:00","07:27:00","07:42:00","07:57:00","08:12:00","08:27:00","08:37:00","08:47:00","08:57:00","09:07:00","09:17:00","09:27:00","09:37:00","09:47:00","09:57:00","10:07:00","10:17:00","10:27:00","10:37:00","10:47:00","10:57:00","11:07:00","11:17:00","11:27:00","11:37:00","11:47:00","11:57:00","12:08:00","12:18:00","12:28:00","12:38:00","12:48:00","12:58:00","13:08:00","13:18:00","13:28:00","13:38:00","13:48:00","13:58:00","14:08:00","14:18:00","14:28:00","14:38:00","14:48:00","14:58:00","15:08:00","15:18:00","15:28:00","15:38:00","15:48:00","15:58:00","16:08:00","16:18:00","16:28:00","16:38:00","16:48:00","16:58:00","17:08:00","17:18:00","17:28:00","17:38:00","17:48:00","17:58:00","18:08:00","18:18:00","18:28:00","18:38:00","18:48:00","18:58:00","19:06:00","19:16:00","19:26:00","19:36:00","19:46:00","19:56:00","20:06:00","20:16:00","20:26:00","20:36:00","20:46:00","20:56:00","21:06:00","21:16:00","21:26:00","21:36:00","21:46:00","21:56:00","22:06:00","22:16:00","22:26:00","22:36:00","22:46:00","22:56:00","23:06:00","23:16:00","23:26:00","23:36:00","23:46:00","23:56:00","24:06:00","24:16:00","24:26:00","24:36:00","24:46:00","24:56:00","25:06:00","25:16:00","25:26:00","25:36:00","25:54:00"],"__typename":"RouteHeadway"},{"dow_category":7,"service_date":"2022-09-04","direction_id":1,"headway_secs":600,"departures":["07:27:00","07:47:00","08:07:00","08:27:00","08:37:00","08:47:00","08:57:00","09:07:00","09:17:00","09:27:00","09:37:00","09:47:00","09:57:00","10:07:00","10:17:00","10:27:00","10:37:00","10:47:00","10:57:00","11:07:00","11:17:00","11:27:00","11:37:00","11:47:00","11:57:00","12:08:00","12:18:00","12:28:00","12:38:00","12:48:00","12:58:00","13:08:00","13:18:00","13:28:00","13:38:00","13:48:00","13:58:00","14:08:00","14:18:00","14:28:00","14:38:00","14:48:00","14:58:00","15:08:00","15:18:00","15:28:00","15:38:00","15:48:00","15:58:00","16:08:00","16:18:00","16:28:00","16:38:00","16:48:00","16:58:00","17:08:00","17:18:00","17:28:00","17:38:00","17:48:00","17:58:00","18:08:00","18:18:00","18:28:00","18:38:00","18:48:00","18:58:00","19:06:00","19:16:00","19:26:00","19:36:00","19:46:00","19:56:00","20:06:00","20:16:00","20:26:00","20:36:00","20:46:00","20:56:00","21:06:00","21:16:00","21:26:00","21:36:00","21:46:00","21:56:00","22:06:00","22:16:00","22:26:00","22:36:00","22:46:00","22:56:00","23:06:00","23:16:00","23:26:00","23:36:00","23:46:00","23:56:00","24:06:00","24:16:00","24:26:00","24:36:00","24:46:00","24:56:00","25:06:00","25:16:00","25:26:00","25:36:00","25:54:00"],"__typename":"RouteHeadway"},{"dow_category":6,"service_date":"2022-09-10","direction_id":1,"headway_secs":600,"departures":["05:59:00","06:14:00","06:24:00","06:34:00","06:44:00","06:54:00","07:04:00","07:14:00","07:24:00","07:34:00","07:44:00","07:54:00","08:04:00","08:14:00","08:24:00","08:34:00","08:44:00","08:56:00","09:06:00","09:16:00","09:27:00","09:38:00","09:48:00","09:57:00","10:06:00","10:15:00","10:24:00","10:33:00","10:42:00","10:51:00","11:00:00","11:09:00","11:18:00","11:27:00","11:36:00","11:45:00","11:54:00","12:03:00","12:12:00","12:21:00","12:31:00","12:41:00","12:51:00","13:01:00","13:10:00","13:20:00","13:29:00","13:39:00","13:48:00","13:58:00","14:07:00","14:17:00","14:26:00","14:36:00","14:45:00","14:55:00","15:04:00","15:14:00","15:23:00","15:33:00","15:42:00","15:52:00","16:01:00","16:11:00","16:20:00","16:30:00","16:39:00","16:49:00","16:58:00","17:08:00","17:17:00","17:27:00","17:36:00","17:46:00","17:55:00","18:05:00","18:14:00","18:24:00","18:33:00","18:43:00","18:52:00","19:02:00","19:12:00","19:22:00","19:32:00","19:42:00","19:52:00","20:02:00","20:12:00","20:22:00","20:32:00","20:42:00","20:52:00","21:02:00","21:12:00","21:22:00","21:32:00","21:42:00","21:52:00","22:02:00","22:10:00","22:20:00","22:30:00","22:40:00","22:50:00","23:00:00","23:10:00","23:20:00","23:30:00","23:40:00","23:50:00","24:00:00","24:10:00","24:20:00","24:30:00","24:40:00","24:50:00","25:00:00","25:10:00","25:20:00","25:30:00","25:40:00","25:58:00"],"__typename":"RouteHeadway"},{"dow_category":6,"service_date":"2022-09-10","direction_id":0,"headway_secs":600,"departures":["05:39:00","05:54:00","06:04:00","06:14:00","06:24:00","06:34:00","06:44:00","06:54:00","07:04:00","07:14:00","07:24:00","07:34:00","07:44:00","07:54:00","08:04:00","08:14:00","08:24:00","08:34:00","08:44:00","08:54:00","09:04:00","09:15:00","09:24:00","09:33:00","09:42:00","09:51:00","10:00:00","10:09:00","10:18:00","10:27:00","10:36:00","10:45:00","10:54:00","11:03:00","11:12:00","11:21:00","11:30:00","11:39:00","11:48:00","11:57:00","12:06:00","12:15:00","12:24:00","12:34:00","12:43:00","12:53:00","13:02:00","13:12:00","13:21:00","13:31:00","13:40:00","13:50:00","13:59:00","14:09:00","14:18:00","14:28:00","14:37:00","14:47:00","14:56:00","15:06:00","15:15:00","15:25:00","15:34:00","15:44:00","15:53:00","16:03:00","16:12:00","16:22:00","16:31:00","16:41:00","16:50:00","17:00:00","17:09:00","17:19:00","17:28:00","17:38:00","17:47:00","17:57:00","18:06:00","18:16:00","18:25:00","18:35:00","18:44:00","18:53:00","19:00:00","19:09:00","19:18:00","19:28:00","19:38:00","19:48:00","19:58:00","20:08:00","20:18:00","20:28:00","20:38:00","20:48:00","20:58:00","21:08:00","21:18:00","21:28:00","21:38:00","21:48:00","21:58:00","22:08:00","22:18:00","22:28:00","22:38:00","22:48:00","22:58:00","23:08:00","23:18:00","23:28:00","23:38:00","23:48:00","23:58:00","24:08:00","24:18:00","24:28:00","24:38:00","24:48:00","24:58:00","25:08:00","25:18:00","25:28:00","25:38:00","25:48:00","25:58:00","26:18:00"],"__typename":"RouteHeadway"},{"dow_category":1,"service_date":"2022-09-05","direction_id":0,"headway_secs":600,"departures":["05:52:00","06:07:00","06:22:00","06:37:00","06:52:00","07:07:00","07:22:00","07:37:00","07:52:00","08:07:00","08:17:00","08:27:00","08:37:00","08:47:00","08:57:00","09:07:00","09:17:00","09:27:00","09:37:00","09:47:00","09:57:00","10:07:00","10:17:00","10:27:00","10:37:00","10:47:00","10:57:00","11:07:00","11:17:00","11:27:00","11:37:00","11:47:00","11:57:00","12:08:00","12:18:00","12:28:00","12:38:00","12:48:00","12:58:00","13:08:00","13:18:00","13:28:00","13:38:00","13:48:00","13:58:00","14:08:00","14:18:00","14:28:00","14:38:00","14:48:00","14:58:00","15:08:00","15:18:00","15:28:00","15:38:00","15:48:00","15:58:00","16:08:00","16:18:00","16:28:00","16:38:00","16:48:00","16:58:00","17:08:00","17:18:00","17:28:00","17:38:00","17:48:00","17:58:00","18:08:00","18:18:00","18:28:00","18:38:00","18:48:00","18:58:00","19:07:00","19:17:00","19:27:00","19:37:00","19:47:00","19:57:00","20:07:00","20:17:00","20:27:00","20:37:00","20:47:00","20:57:00","21:07:00","21:17:00","21:27:00","21:37:00","21:47:00","21:57:00","22:06:00","22:16:00","22:26:00","22:36:00","22:46:00","22:56:00","23:06:00","23:16:00","23:26:00","23:36:00","23:46:00","23:56:00","24:06:00","24:16:00","24:26:00","24:36:00","24:46:00","24:56:00","25:06:00","25:16:00","25:26:00","25:36:00","25:46:00","25:56:00","26:15:00"],"__typename":"RouteHeadway"},{"dow_category":7,"service_date":"2022-09-04","direction_id":0,"headway_secs":600,"departures":["07:07:00","07:47:00","08:07:00","08:17:00","08:27:00","08:37:00","08:47:00","08:57:00","09:07:00","09:17:00","09:27:00","09:37:00","09:47:00","09:57:00","10:07:00","10:17:00","10:27:00","10:37:00","10:47:00","10:57:00","11:07:00","11:17:00","11:27:00","11:37:00","11:47:00","11:57:00","12:08:00","12:18:00","12:28:00","12:38:00","12:48:00","12:58:00","13:08:00","13:18:00","13:28:00","13:38:00","13:48:00","13:58:00","14:08:00","14:18:00","14:28:00","14:38:00","14:48:00","14:58:00","15:08:00","15:18:00","15:28:00","15:38:00","15:48:00","15:58:00","16:08:00","16:18:00","16:28:00","16:38:00","16:48:00","16:58:00","17:08:00","17:18:00","17:28:00","17:38:00","17:48:00","17:58:00","18:08:00","18:18:00","18:28:00","18:38:00","18:48:00","18:58:00","19:07:00","19:17:00","19:27:00","19:37:00","19:47:00","19:57:00","20:07:00","20:17:00","20:27:00","20:37:00","20:47:00","20:57:00","21:07:00","21:17:00","21:27:00","21:37:00","21:47:00","21:57:00","22:06:00","22:16:00","22:26:00","22:36:00","22:46:00","22:56:00","23:06:00","23:16:00","23:26:00","23:36:00","23:46:00","23:56:00","24:06:00","24:16:00","24:26:00","24:36:00","24:46:00","24:56:00","25:06:00","25:16:00","25:26:00","25:36:00","25:46:00","25:56:00","26:16:00"],"__typename":"RouteHeadway"}],"feed_version":{"id":283119,"fetched_at":"2022-09-01T13:00:48.827458Z","__typename":"FeedVersion"}},"id":8360025},